City_ID,City,Country,Date,Lat,Lng,Max Temp,Humidity,Cloudiness,Wind Speed
0,Bluff,NZ,2022-04-25 20:23:44,-46.6,168.3333,51.8,67,100,24.05
1,Atuona,PF,2022-04-25 20:23:44,-9.8,-139.0333,78.24,79,24,15.59
2,Mahebourg,MU,2022-04-25 20:23:44,-20.4081,57.7,73.69,88,40,12.66
3,Albany,US,2022-04-25 20:22:25,42.6001,-73.9662,69.3,36,100,10.0
4,Rikitea,PF,2022-04-25 20:23:41,-23.1203,-134.9692,77.16,72,76,15.7
5,Broken Hill,AU,2022-04-25 20:23:45,-31.95,141.4333,60.66,75,100,15.75
6,Port Blair,IN,2022-04-25 20:23:45,11.6667,92.75,80.64,83,20,2.3
7,Cap Malheureux,MU,2022-04-25 20:23:46,-19.9842,57.6142,78.33,69,40,21.85
8,Mataura,NZ,2022-04-25 20:23:30,-46.1927,168.8643,51.48,81,65,6.78
9,Ancud,CL,2022-04-25 20:23:46,-41.8697,-73.8203,53.22,91,100,30.98
10,Lebu,CL,2022-04-25 20:22:40,-37.6167,-73.65,55.98,73,100,22.95
11,Cape Town,ZA,2022-04-25 20:23:47,-33.9258,18.4232,60.91,70,0,11.99
12,Punta Arenas,CL,2022-04-25 20:22:22,-53.15,-70.9167,44.71,65,40,14.97
13,Salinas,US,2022-04-25 20:23:47,36.6777,-121.6555,81.01,57,0,14.97
14,Barrow,US,2022-04-25 20:21:08,71.2906,-156.7887,12.22,79,100,12.66
15,Envira,BR,2022-04-25 20:23:47,-7.3,-70.2167,83.26,79,99,1.16
16,Buala,SB,2022-04-25 20:23:48,-8.145,159.5921,80.67,82,87,4.23
17,Oranjemund,NA,2022-04-25 20:23:48,-28.55,16.4333,57.07,74,0,18.05
18,Poya,NC,2022-04-25 20:23:49,-21.35,165.15,69.13,75,96,6.4
19,Ushuaia,AR,2022-04-25 20:19:13,-54.8,-68.3,40.62,82,100,2.98
20,Georgetown,MY,2022-04-25 20:19:21,5.4112,100.3354,80.53,92,20,2.3
21,Cidreira,BR,2022-04-25 20:23:49,-30.1811,-50.2056,73.94,76,82,13.6
22,Thompson,CA,2022-04-25 20:23:50,55.7435,-97.8558,24.96,36,40,9.22
23,Te Anau,NZ,2022-04-25 20:23:50,-45.4167,167.7167,39.61,90,7,1.1
24,Busselton,AU,2022-04-25 20:22:58,-33.65,115.3333,62.01,65,100,17.58
25,Nome,US,2022-04-25 20:23:50,64.5011,-165.4064,33.17,93,100,0.0
26,Lorengau,PG,2022-04-25 20:23:51,-2.0226,147.2712,80.55,80,47,5.73
27,Ponta Do Sol,PT,2022-04-25 20:23:51,32.6667,-17.1,64.0,81,27,11.18
28,Esperance,AU,2022-04-25 20:23:51,-33.8667,121.9,69.64,41,100,25.75
29,Bathsheba,BB,2022-04-25 20:23:28,13.2167,-59.5167,75.81,100,75,13.8
30,Aksu,CN,2022-04-25 20:23:53,41.1231,80.2644,63.61,30,100,7.49
31,Bredasdorp,ZA,2022-04-25 20:23:53,-34.5322,20.0403,55.33,73,0,2.44
32,Saint George,US,2022-04-25 20:21:42,37.1041,-113.5841,77.25,12,0,5.75
33,Chimoio,MZ,2022-04-25 20:23:54,-19.1164,33.4833,64.87,97,0,2.91
34,Nizwa,OM,2022-04-25 20:23:54,22.9333,57.5333,82.49,26,3,4.54
35,Pelym,RU,2022-04-25 20:23:55,61.0108,61.9978,36.55,98,100,3.74
36,Mandali,IQ,2022-04-25 20:23:55,33.7499,45.5541,70.88,59,100,3.36
37,Kindia,GN,2022-04-25 20:23:55,10.0569,-12.8658,81.27,54,72,7.29
38,Hobart,AU,2022-04-25 20:21:02,-42.8794,147.3294,50.22,92,20,6.91
39,Kaitangata,NZ,2022-04-25 20:23:56,-46.2817,169.8464,48.87,70,41,13.62
40,Saskylakh,RU,2022-04-25 20:23:56,71.9167,114.0833,-7.4,100,100,3.83
41,Isangel,VU,2022-04-25 20:23:56,-19.55,169.2667,75.96,73,100,15.68
42,Butaritari,KI,2022-04-25 20:23:57,3.0707,172.7902,79.65,84,37,13.82
43,Kailua,US,2022-04-25 20:23:57,21.4022,-157.7394,80.58,72,75,14.97
44,Nikolskoye,RU,2022-04-25 20:23:57,59.7035,30.7861,42.87,97,100,4.9
45,Gwembe,ZM,2022-04-25 20:23:58,-16.4975,27.6069,63.79,60,7,1.66
46,Marawi,PH,2022-04-25 20:23:31,7.9986,124.2928,69.93,91,100,2.98
47,Mayo,US,2022-04-25 20:24:58,38.8876,-76.5119,71.98,63,40,9.22
48,Bagamoyo,TZ,2022-04-25 20:24:59,-6.4333,38.9,75.69,92,39,5.46
49,Provideniya,RU,2022-04-25 20:24:59,64.3833,-173.3,24.64,82,87,13.58
50,Castro,BR,2022-04-25 20:25:00,-24.7911,-50.0119,71.89,68,0,3.49
51,Lakatoro,VU,2022-04-25 20:25:01,-16.0999,167.4164,78.89,77,88,11.97
52,Liuhe,CN,2022-04-25 20:25:01,42.2401,125.7172,51.96,87,6,7.74
53,Novyy Urengoy,RU,2022-04-25 20:25:01,66.0833,76.6333,3.99,98,93,7.2
54,Hasaki,JP,2022-04-25 20:23:10,35.7333,140.8333,63.0,89,100,7.81
55,Husavik,IS,2022-04-25 20:25:02,66.0449,-17.3389,42.15,76,63,3.8
56,Talnakh,RU,2022-04-25 20:25:02,69.4865,88.3972,2.21,98,100,4.54
57,Florianopolis,BR,2022-04-25 20:21:37,-27.6146,-48.5012,77.13,83,20,14.97
58,Balod,IN,2022-04-25 20:25:03,20.73,81.2047,85.37,12,0,1.99
59,Labuhan,ID,2022-04-25 20:25:03,-6.8844,112.2051,78.93,85,99,3.58
60,Jodhpur,IN,2022-04-25 20:25:04,26.2867,73.03,86.86,28,4,10.38
61,East London,ZA,2022-04-25 20:20:16,-33.0153,27.9116,62.62,73,12,15.48
62,Souillac,MU,2022-04-25 20:23:55,-20.5167,57.5167,73.78,88,40,12.66
63,Panguna,PG,2022-04-25 20:25:04,-6.3164,155.4848,68.74,93,73,1.68
64,San Quintin,MX,2022-04-25 20:25:05,30.4833,-115.95,75.51,30,0,10.56
65,Neiafu,TO,2022-04-25 20:25:05,-18.65,-173.9833,81.28,83,75,6.91
66,Robertsport,LR,2022-04-25 20:25:06,6.7533,-11.3686,81.39,84,100,11.27
67,Hilo,US,2022-04-25 20:25:06,19.7297,-155.09,80.28,79,100,8.05
68,Dudinka,RU,2022-04-25 20:25:06,69.4058,86.1778,2.62,98,100,6.31
69,Puerto Ayora,EC,2022-04-25 20:25:07,-0.7393,-90.3518,76.96,77,80,11.97
70,Fortuna,US,2022-04-25 20:23:37,40.5982,-124.1573,62.92,84,100,8.05
71,Kamaishi,JP,2022-04-25 20:25:07,39.2667,141.8833,55.06,91,100,9.57
72,Hermanus,ZA,2022-04-25 20:25:08,-34.4187,19.2345,51.8,71,0,5.37
73,Meulaboh,ID,2022-04-25 20:23:40,4.1363,96.1285,76.14,91,100,2.19
74,Otradnoye,RU,2022-04-25 20:25:08,59.7775,30.8181,41.88,97,100,4.88
75,Caronport,CA,2022-04-25 20:25:09,50.4501,-105.8179,46.6,42,94,12.8
76,Roma,US,2022-04-25 20:21:36,43.2128,-75.4557,77.58,33,0,13.8
77,Durant,US,2022-04-25 20:25:09,33.994,-96.3708,68.16,46,0,12.66
78,Tuktoyaktuk,CA,2022-04-25 20:25:10,69.4541,-133.0374,19.4,86,20,3.44
79,Luanda,AO,2022-04-25 20:21:11,-8.8368,13.2343,76.55,85,86,8.97
80,Aklavik,CA,2022-04-25 20:25:10,68.2191,-135.0107,33.21,100,100,4.07
81,Henties Bay,NA,2022-04-25 20:25:11,-22.116,14.2845,63.07,67,0,7.56
82,Gawler,AU,2022-04-25 20:25:11,-34.6,138.7333,66.24,76,100,6.96
83,Vaini,TO,2022-04-25 20:23:51,-21.2,-175.2,73.56,88,75,11.5
84,Lavrentiya,RU,2022-04-25 20:25:12,65.5833,-171.0,22.64,83,97,7.27
85,Lafia,NG,2022-04-25 20:25:12,8.4833,8.5167,87.66,50,48,3.31
86,Qesarya,IL,2022-04-25 20:25:12,32.5189,34.9046,67.96,77,0,7.11
87,Malpe,IN,2022-04-25 20:25:13,13.35,74.7167,79.9,82,99,4.36
88,Severo-Kurilsk,RU,2022-04-25 20:23:33,50.6789,156.125,32.14,85,100,19.84
89,Kavieng,PG,2022-04-25 20:24:26,-2.5744,150.7967,81.09,78,92,10.78
90,Port Alfred,ZA,2022-04-25 20:22:45,-33.5906,26.891,56.17,91,30,3.0
91,Abu Kamal,SY,2022-04-25 20:24:10,34.4506,40.9171,77.86,26,3,5.59
92,Hithadhoo,MV,2022-04-25 20:23:12,-0.6,73.0833,83.48,75,69,6.98
93,Qaanaaq,GL,2022-04-25 20:22:50,77.484,-69.3632,11.3,71,71,5.28
94,Mareeba,AU,2022-04-25 20:26:14,-17.0,145.4333,70.45,97,92,2.19
95,Faanui,PF,2022-04-25 20:25:18,-16.4833,-151.75,81.37,72,6,8.93
96,San Carlos De Bariloche,AR,2022-04-25 20:26:14,-41.1456,-71.3082,44.35,65,40,27.63
97,Longyearbyen,SJ,2022-04-25 20:25:09,78.2186,15.6401,3.04,60,75,13.8
98,Guisa,CU,2022-04-25 20:26:15,20.255,-76.5386,79.29,71,47,6.71
99,Nantucket,US,2022-04-25 20:26:15,41.2835,-70.0995,53.74,63,0,8.05
100,Norman Wells,CA,2022-04-25 20:26:15,65.282,-126.8329,42.84,61,75,5.75
101,Koroni,GR,2022-04-25 20:26:16,36.8,21.95,67.06,67,100,9.62
102,San Cristobal,VE,2022-04-25 20:25:49,7.7669,-72.225,71.78,50,47,4.72
103,Mestia,GE,2022-04-25 20:26:16,43.0458,42.7278,45.03,80,6,3.91
104,Auki,SB,2022-04-25 20:26:17,-8.7676,160.7034,77.86,86,27,3.02
105,Kangaatsiaq,GL,2022-04-25 20:25:06,68.3065,-53.4641,29.1,77,100,5.35
106,Sumbe,AO,2022-04-25 20:26:17,-11.2061,13.8437,75.87,86,88,4.92
107,Tiksi,RU,2022-04-25 20:23:56,71.6872,128.8694,-5.85,100,99,3.11
108,Upernavik,GL,2022-04-25 20:26:18,72.7868,-56.1549,19.9,87,29,2.64
109,Yarensk,RU,2022-04-25 20:26:18,62.1675,49.0916,36.0,92,99,4.99
110,Yaring,TH,2022-04-25 20:26:18,6.8662,101.3689,79.02,88,31,4.97
111,Vestmannaeyjar,IS,2022-04-25 20:26:19,63.4427,-20.2734,45.75,85,70,12.19
112,Brae,GB,2022-04-25 20:26:19,60.3964,-1.353,43.5,77,74,15.79
113,Ribeira Grande,PT,2022-04-25 20:22:40,38.5167,-28.7,61.2,63,20,12.66
114,Wewak,PG,2022-04-25 20:26:20,-3.5534,143.6268,79.29,83,32,3.96
115,Leh,IN,2022-04-25 20:26:20,34.1667,77.5833,38.12,73,78,4.99
116,Vila Velha,BR,2022-04-25 20:26:20,-20.3297,-40.2925,80.55,76,75,10.36
117,Bambous Virieux,MU,2022-04-25 20:26:21,-20.3428,57.7575,73.65,88,40,12.66
118,Haines Junction,CA,2022-04-25 20:26:21,60.7522,-137.5108,46.35,42,94,3.44
119,Ust-Kuyga,RU,2022-04-25 20:26:22,70.0167,135.6,-9.27,100,99,0.67
120,Tasiilaq,GL,2022-04-25 20:22:44,65.6145,-37.6368,33.96,96,100,8.46
121,Havelock,US,2022-04-25 20:26:22,34.8791,-76.9013,84.16,68,0,13.8
122,Yellowknife,CA,2022-04-25 20:24:01,62.456,-114.3525,43.32,45,75,13.8
123,Coracora,PE,2022-04-25 20:26:23,-15.0333,-73.7833,59.92,60,100,10.29
124,Thunder Bay,CA,2022-04-25 20:26:23,48.4001,-89.3168,36.28,60,75,14.97
125,Camopi,GF,2022-04-25 20:26:23,3.1655,-52.3158,79.14,95,77,3.33
126,Bengkulu,ID,2022-04-25 20:23:31,-3.8004,102.2655,76.21,88,100,7.58
127,Alofi,NU,2022-04-25 20:25:12,-19.0595,-169.9187,78.69,89,100,4.61
128,Jamestown,US,2022-04-25 20:25:36,42.097,-79.2353,80.24,44,40,17.27
129,Sangin,AF,2022-04-25 20:26:24,32.0728,64.8359,76.64,12,1,3.44
130,Miraflores,MX,2022-04-25 20:26:24,19.2167,-98.8083,78.03,28,76,3.15
131,Anju,KP,2022-04-25 20:26:25,39.6178,125.6647,55.2,89,24,3.67
132,Namatanai,PG,2022-04-25 20:24:47,-3.6667,152.4333,78.66,80,100,4.47
133,Grand Gaube,MU,2022-04-25 20:26:25,-20.0064,57.6608,73.8,70,57,21.74
134,Arlit,NE,2022-04-25 20:26:19,18.7369,7.3853,87.98,6,0,10.69
135,General Pico,AR,2022-04-25 20:24:40,-35.6566,-63.7568,70.75,21,0,8.95
136,Bonoua,CI,2022-04-25 20:26:26,5.2741,-3.595,82.02,90,70,4.74
137,Kahului,US,2022-04-25 20:26:26,20.8947,-156.47,78.82,61,40,19.57
138,Lagoa,PT,2022-04-25 20:27:27,39.05,-27.9833,57.88,71,20,13.38
139,Avarua,CK,2022-04-25 20:23:30,-21.2078,-159.775,80.65,83,100,8.05
140,Clyde River,CA,2022-04-25 20:24:59,70.4692,-68.5914,8.83,92,100,23.02
141,Jardim,BR,2022-04-25 20:27:27,-21.4803,-56.1381,90.01,44,97,5.66
142,Ostrovnoy,RU,2022-04-25 20:27:28,68.0531,39.5131,34.43,98,100,8.93
143,Roald,NO,2022-04-25 20:27:28,62.5833,6.1333,46.76,70,75,14.97
144,Puerto Suarez,BO,2022-04-25 20:27:29,-18.95,-57.8,93.76,58,75,11.5
145,Los Llanos De Aridane,ES,2022-04-25 20:24:22,28.6585,-17.9182,65.95,81,20,8.01
146,Luderitz,NA,2022-04-25 20:27:29,-26.6481,15.1594,59.4,56,0,15.75
147,Mokolo,CM,2022-04-25 20:27:30,10.7398,13.8019,85.71,37,100,3.76
148,Vardo,NO,2022-04-25 20:23:19,70.3705,31.1107,30.18,80,20,13.8
149,Salalah,OM,2022-04-25 20:27:30,17.0151,54.0924,82.49,74,0,2.3
150,Dingle,PH,2022-04-25 20:25:25,10.9995,122.6711,78.01,88,48,6.93
151,Lerwick,GB,2022-04-25 20:25:27,60.1545,-1.1494,44.6,79,76,16.08
152,Saint-Philippe,RE,2022-04-25 20:27:31,-21.3585,55.7679,73.22,80,87,15.7
153,Laguna,US,2022-04-25 20:27:31,38.421,-121.4238,80.78,31,65,4.0
154,Port Lincoln,AU,2022-04-25 20:23:54,-34.7333,135.8667,63.79,82,100,5.73
155,Ilulissat,GL,2022-04-25 20:27:32,69.2167,-51.1,28.45,89,100,1.68
156,Chumikan,RU,2022-04-25 20:27:32,54.7183,135.315,19.49,92,13,3.38
157,Alvaraes,BR,2022-04-25 20:27:32,-3.2208,-64.8042,94.87,69,74,3.74
158,Koupela,BF,2022-04-25 20:27:33,12.1794,-0.3517,94.82,8,100,6.64
159,Veinticinco De Diciembre,MX,2022-04-25 20:27:33,25.2602,-104.0519,90.66,10,0,1.66
160,Navirai,BR,2022-04-25 20:27:33,-23.065,-54.1906,83.95,58,18,7.45
161,Bintulu,MY,2022-04-25 20:27:34,3.1667,113.0333,75.61,94,20,0.0
162,Nanakuli,US,2022-04-25 20:27:34,21.3906,-158.1547,80.55,65,0,16.22
163,Mar Del Plata,AR,2022-04-25 20:23:29,-38.0023,-57.5575,62.62,72,0,12.66
164,College,US,2022-04-25 20:26:11,64.8569,-147.8028,47.21,46,75,0.0
165,Pemangkat,ID,2022-04-25 20:27:35,1.1667,108.9667,77.04,86,100,4.61
166,San Jose Del Guaviare,CO,2022-04-25 20:23:00,2.5729,-72.6459,82.62,74,97,4.07
167,Ahipara,NZ,2022-04-25 20:24:21,-35.1667,173.1667,60.76,82,25,6.62
168,Conde,BR,2022-04-25 20:27:36,-7.2597,-34.9075,80.06,83,75,10.36
169,Broome,US,2022-04-25 20:27:36,42.2506,-75.833,74.43,48,0,13.8
170,Maragogi,BR,2022-04-25 20:27:05,-9.0122,-35.2225,79.18,74,97,10.25
171,Carnarvon,AU,2022-04-25 20:23:10,-24.8667,113.6333,71.67,78,0,6.91
172,Burnie,AU,2022-04-25 20:27:37,-41.0667,145.9167,56.95,1,95,7.11
173,Hamilton,US,2022-04-25 20:27:33,39.1834,-84.5333,66.88,89,75,14.97
174,Suzun,RU,2022-04-25 20:27:37,53.7841,82.3116,38.08,69,17,1.68
175,Geraldton,AU,2022-04-25 20:23:03,-28.7667,114.6,68.41,68,100,16.11
176,Wairoa,NZ,2022-04-25 20:27:37,-39.0333,177.3667,46.54,99,14,5.01
177,Nogliki,RU,2022-04-25 20:27:38,51.8333,143.1667,15.42,93,42,6.73
178,Mamou,GN,2022-04-25 20:27:38,10.5,-12.0,83.5,18,5,3.11
179,Sao Joao Da Barra,BR,2022-04-25 20:28:39,-21.6403,-41.0511,78.89,75,5,9.08
180,Tarko-Sale,RU,2022-04-25 20:28:39,64.9225,77.785,9.73,94,29,8.95
181,Valley City,US,2022-04-25 20:28:39,46.9233,-98.0032,32.02,66,100,16.73
182,Aksarka,RU,2022-04-25 20:28:40,66.5606,67.7975,24.21,97,86,7.76
183,Tarabuco,BO,2022-04-25 20:28:40,-19.1667,-64.9167,66.63,22,34,4.81
184,Sitka,US,2022-04-25 20:28:40,57.0531,-135.33,46.29,76,75,4.61
185,Quemado De Guines,CU,2022-04-25 20:28:41,22.7853,-80.2536,84.42,47,20,17.43
186,Stornoway,GB,2022-04-25 20:28:41,58.2093,-6.3865,46.92,84,100,13.8
187,Chokurdakh,RU,2022-04-25 20:28:41,70.6333,147.9167,6.75,93,98,4.88
188,Phalaborwa,ZA,2022-04-25 20:28:42,-23.943,31.1411,70.88,79,23,6.38
189,Torbay,CA,2022-04-25 20:28:42,47.6666,-52.7314,39.76,93,100,16.11
190,Hofn,IS,2022-04-25 20:28:42,64.2539,-15.2082,40.48,93,100,10.67
191,Abalak,RU,2022-04-25 20:28:43,58.1286,68.5944,41.31,94,55,5.1
192,Khudumelapye,BW,2022-04-25 20:28:43,-23.8833,24.75,63.59,56,6,8.34
193,Kapaa,US,2022-04-25 20:28:44,22.0752,-159.319,78.78,79,100,18.41
194,Kruisfontein,ZA,2022-04-25 20:28:44,-34.0033,24.7314,55.89,85,2,6.62
195,New Norfolk,AU,2022-04-25 20:28:44,-42.7826,147.0587,49.87,88,90,2.37
196,Qazvin,IR,2022-04-25 20:28:45,36.2797,50.0049,55.02,88,0,2.3
197,Cody,US,2022-04-25 20:27:20,44.5263,-109.0565,57.92,26,40,10.36
198,Lompoc,US,2022-04-25 20:28:46,34.6391,-120.4579,86.14,59,0,18.41
199,Faya,SA,2022-04-25 20:28:46,18.3851,42.4509,64.51,52,0,5.68
200,Bima,ID,2022-04-25 20:28:46,-8.4667,118.7167,73.11,85,100,2.86
201,Muros,ES,2022-04-25 20:28:47,42.7762,-9.0603,56.84,73,90,6.08
202,Straumen,NO,2022-04-25 20:28:47,63.8709,11.2999,41.0,80,28,8.05
203,Khatanga,RU,2022-04-25 20:28:47,71.9667,102.5,-12.37,100,100,4.41
204,Port Hardy,CA,2022-04-25 20:24:39,50.6996,-127.4199,42.98,87,100,6.91
205,Kenai,US,2022-04-25 20:28:48,60.5544,-151.2583,48.02,74,0,3.44
206,Maunabo,PR,2022-04-25 20:28:49,18.0072,-65.8993,83.7,76,66,14.12
207,Nova Olimpia,BR,2022-04-25 20:28:50,-14.7972,-57.2881,90.81,55,44,2.55
208,Cabo San Lucas,MX,2022-04-25 20:28:19,22.8909,-109.9124,84.61,61,0,4.0
209,Batman,TR,2022-04-25 20:23:59,37.8874,41.1322,62.4,67,0,5.75
210,Codrington,AU,2022-04-25 20:28:50,-38.2667,141.9667,56.37,74,100,9.13
211,San Angelo,US,2022-04-25 20:25:05,31.4638,-100.437,64.62,45,20,19.57
212,Staryy Nadym,RU,2022-04-25 20:28:51,65.6118,72.6842,11.98,96,44,6.89
213,Rio Tercero,AR,2022-04-25 20:28:52,-32.173,-64.1141,77.45,36,0,7.16
214,Lata,PT,2022-04-25 20:25:58,40.1629,-8.3327,58.82,82,59,1.52
215,Dikson,RU,2022-04-25 20:28:52,73.5069,80.5464,4.41,100,100,2.71
216,Cherskiy,RU,2022-04-25 20:28:53,68.75,161.3,23.49,75,100,3.2
217,Tual,ID,2022-04-25 20:28:54,-5.6667,132.75,83.26,72,100,4.12
218,Odweyne,SO,2022-04-25 20:28:54,9.4092,45.064,70.52,62,100,0.6
219,Kingisepp,RU,2022-04-25 20:28:55,59.3733,28.6134,38.41,96,100,3.83
220,Mineros,BO,2022-04-25 20:28:55,-17.1167,-63.2333,87.73,54,99,10.25
221,Krasnoselkup,RU,2022-04-25 20:28:56,65.7,82.4667,-4.18,100,46,4.12
222,Loubomo,CG,2022-04-25 20:29:56,-4.1997,12.6739,75.16,90,100,1.68
223,Saldanha,ZA,2022-04-25 20:29:57,-33.0117,17.9442,53.65,77,0,16.26
224,Sao Filipe,CV,2022-04-25 20:29:57,14.8961,-24.4956,76.64,64,4,11.03
225,Bondeno,IT,2022-04-25 20:29:57,44.8862,11.4108,59.29,81,97,1.99
226,El Mante,MX,2022-04-25 20:29:58,22.7333,-98.9667,94.35,33,20,10.27
227,Ryotsu,JP,2022-04-25 20:29:58,38.0833,138.4333,60.66,71,100,2.59
228,Rosetta,EG,2022-04-25 20:29:58,31.4044,30.4164,63.88,78,18,8.5
229,Port Elizabeth,ZA,2022-04-25 20:25:07,-33.918,25.5701,59.29,85,0,11.5
230,Aguimes,ES,2022-04-25 20:29:59,27.9054,-15.4461,66.83,64,75,8.05
231,Nuuk,GL,2022-04-25 20:29:59,64.1835,-51.7216,32.61,74,75,5.75
232,Dosso,NE,2022-04-25 20:29:59,13.049,3.1937,92.16,8,100,6.31
233,Kokkola,FI,2022-04-25 20:30:00,63.8385,23.1307,37.04,90,40,2.3
234,Arraial Do Cabo,BR,2022-04-25 20:30:00,-22.9661,-42.0278,76.96,69,20,11.5
235,Portland,US,2022-04-25 20:25:32,45.5234,-122.6762,59.56,81,100,3.44
236,Narsaq,GL,2022-04-25 20:30:01,60.9167,-46.05,46.62,79,93,0.81
237,Galle,LK,2022-04-25 20:30:02,6.0367,80.217,79.23,82,69,2.64
238,Nuqui,CO,2022-04-25 20:30:03,5.7125,-77.2708,81.37,76,98,5.82
239,Bambamarca,PE,2022-04-25 20:30:03,-6.6833,-78.5333,57.42,85,97,4.29
240,Manzanillo,CU,2022-04-25 20:30:04,20.3433,-77.1167,80.85,64,74,10.0
241,Chapleau,CA,2022-04-25 20:30:05,47.8405,-83.4034,42.89,70,100,11.5
242,Charters Towers,AU,2022-04-25 20:30:06,-20.1,146.2667,68.95,96,100,15.59
243,Alice Springs,AU,2022-04-25 20:30:07,-23.7,133.8833,51.35,100,80,0.0
244,Pleshanovo,RU,2022-04-25 20:30:07,52.8333,53.4833,52.41,79,99,7.25
245,Vanavara,RU,2022-04-25 20:30:08,60.34,102.2797,27.52,95,100,3.96
246,Marsabit,KE,2022-04-25 20:30:08,2.3284,37.9899,71.22,60,100,7.38
247,Tazovskiy,RU,2022-04-25 20:30:09,67.4667,78.7,2.59,97,89,6.85
248,Katobu,ID,2022-04-25 20:30:09,-4.9408,122.5276,74.44,93,13,1.34
249,Kota Bahru,MY,2022-04-25 20:30:09,6.1333,102.2386,78.75,94,20,3.44
250,Akyab,MM,2022-04-25 20:30:10,20.15,92.9,82.33,80,22,5.1
251,Rio Gallegos,AR,2022-04-25 20:25:19,-51.6226,-69.2181,42.85,93,75,16.11
252,Kodiak,US,2022-04-25 20:30:10,57.79,-152.4072,45.91,49,0,9.22
253,Marzuq,YE,2022-04-25 20:30:11,14.4,46.4667,75.6,56,100,3.69
254,Encheng,CN,2022-04-25 20:30:11,22.1839,112.3026,75.65,97,11,4.07
255,Takoradi,GH,2022-04-25 20:30:11,4.8845,-1.7554,79.92,87,16,6.13
256,Payakumbuh,ID,2022-04-25 20:30:12,-0.2202,100.6308,70.59,97,100,3.31
257,Gimli,CA,2022-04-25 20:29:44,50.6336,-96.9907,21.22,73,100,20.71
258,Teshie,GH,2022-04-25 20:30:12,5.5836,-0.1072,82.96,83,0,3.44
259,Japura,ID,2022-04-25 20:30:13,-0.3167,102.35,74.71,97,99,2.37
260,Marsa Matruh,EG,2022-04-25 20:30:13,31.3525,27.2453,62.8,88,0,4.61
261,High Level,CA,2022-04-25 20:25:24,58.5169,-117.136,46.51,49,75,14.97
262,Monrovia,LR,2022-04-25 20:30:14,6.3005,-10.7969,80.37,84,99,10.27
263,Raga,SS,2022-04-25 20:30:14,8.4596,25.678,78.03,64,74,3.87
264,Grindavik,IS,2022-04-25 20:30:14,63.8424,-22.4338,45.07,81,100,5.75
265,Ljubuski,BA,2022-04-25 20:26:08,43.1969,17.545,56.62,80,1,2.1
266,Kieta,PG,2022-04-25 20:30:15,-6.2167,155.6333,80.53,80,58,0.63
267,Amapa,BR,2022-04-25 20:30:15,1.0,-52.0,75.99,97,99,3.04
268,Hokitika,NZ,2022-04-25 20:30:16,-42.7167,170.9667,54.28,75,47,3.11
269,Ishigaki,JP,2022-04-25 20:30:17,24.3448,124.1572,78.93,100,75,10.36
270,Shimoda,JP,2022-04-25 20:30:18,34.6667,138.95,63.1,90,100,1.36
271,Wakkanai,JP,2022-04-25 20:31:18,45.4094,141.6739,44.8,72,84,9.78
272,Belaya Gora,RU,2022-04-25 20:31:18,68.5333,146.4167,7.95,93,80,1.83
273,Catamarca,AR,2022-04-25 20:31:19,-28.4696,-65.7852,91.78,29,0,5.01
274,Esmeraldas,BR,2022-04-25 20:31:19,-19.7625,-44.3139,79.84,50,85,8.81
275,Ylivieska,FI,2022-04-25 20:31:19,64.0833,24.55,38.88,97,99,4.65
276,Hammerfest,NO,2022-04-25 20:31:20,70.6634,23.6821,27.05,86,100,11.5
277,Nouadhibou,MR,2022-04-25 20:31:20,20.931,-17.0347,66.18,94,0,14.97
278,Omboue,GA,2022-04-25 20:31:21,-1.5746,9.2618,78.37,90,100,5.64
279,Moose Factory,CA,2022-04-25 20:31:21,51.2585,-80.6094,46.4,71,100,18.41
280,Vostok,RU,2022-04-25 20:31:21,46.4856,135.8833,39.25,75,100,5.46
281,Taltal,CL,2022-04-25 20:30:33,-25.4,-70.4833,65.3,81,42,6.31
282,Trinidad,BO,2022-04-25 20:31:22,-14.8333,-64.9,87.78,70,75,5.75
283,Paciran,ID,2022-04-25 20:31:22,-6.8767,112.3761,78.69,85,80,3.51
284,Floriano,BR,2022-04-25 20:31:22,-6.7669,-43.0225,82.2,56,12,2.71
285,Ayr,GB,2022-04-25 20:31:23,55.4627,-4.6339,49.98,62,20,8.05
286,Zeya,RU,2022-04-25 20:31:23,53.75,127.2667,28.38,65,100,5.55
287,La Ronge,CA,2022-04-25 20:31:24,55.1001,-105.2842,35.82,25,0,11.5
288,Bone,DE,2022-04-25 20:31:24,51.9669,12.1396,50.86,74,99,4.41
289,Atambua,ID,2022-04-25 20:31:24,-9.1061,124.8925,69.82,73,80,3.27
290,Ayorou,NE,2022-04-25 20:31:25,14.7308,0.9174,88.97,10,8,12.48
291,Uribia,CO,2022-04-25 20:31:25,11.7139,-72.266,86.56,55,100,8.7
292,Tahoua,NE,2022-04-25 20:31:25,14.8888,5.2692,89.91,10,97,10.31
293,Bethel,US,2022-04-25 20:31:26,41.3712,-73.414,62.69,37,0,5.75
294,Comodoro Rivadavia,AR,2022-04-25 20:31:26,-45.8667,-67.5,58.86,36,0,13.8
295,Borogontsy,RU,2022-04-25 20:31:26,62.6683,131.1683,16.86,90,69,4.43
296,Dawson Creek,CA,2022-04-25 20:31:27,55.7666,-120.2362,53.24,50,20,9.22
297,Zaoyang,CN,2022-04-25 20:31:27,32.1272,112.7542,60.84,87,34,4.47
298,Tuatapere,NZ,2022-04-25 20:31:28,-46.1333,167.6833,44.56,82,35,5.06
299,Nanortalik,GL,2022-04-25 20:31:28,60.1432,-45.2371,35.28,89,98,6.02
300,Fairbanks,US,2022-04-25 20:31:28,64.8378,-147.7164,47.23,49,75,0.0
301,Corralillo,CU,2022-04-25 20:31:29,22.9819,-80.5856,80.73,64,14,19.37
302,Lenexa,US,2022-04-25 20:28:37,38.9536,-94.7336,60.8,44,0,17.27
303,Am Timan,TD,2022-04-25 20:31:29,11.0297,20.2827,86.76,40,79,1.36
304,Daru,PG,2022-04-25 20:31:29,-9.0763,143.2092,79.32,84,71,1.99
305,Santo Tomas,PH,2022-04-25 20:31:30,14.1079,121.1414,80.85,92,26,5.12
306,Constitucion,CL,2022-04-25 20:31:30,-35.3333,-72.4167,55.92,82,100,8.1
307,Sangar,RU,2022-04-25 20:31:30,63.9242,127.4739,6.49,96,64,3.49
308,Samandag,TR,2022-04-25 20:31:31,36.0842,35.9771,70.32,60,7,2.82
309,Hay River,CA,2022-04-25 20:31:31,60.8156,-115.7999,49.98,40,75,12.66
310,Pula,HR,2022-04-25 20:31:32,44.8683,13.8481,50.56,93,0,5.75
311,Qasigiannguit,GL,2022-04-25 20:31:32,68.8193,-51.1922,28.76,91,100,4.03
312,Sechura,PE,2022-04-25 20:31:32,-5.5569,-80.8222,79.07,58,33,14.32
313,Qaqortoq,GL,2022-04-25 20:31:33,60.7167,-46.0333,37.2,84,88,3.0
314,Chuy,UY,2022-04-25 20:31:33,-33.6971,-53.4616,65.52,97,100,7.4
315,Sheridan,US,2022-04-25 20:31:33,44.8333,-106.9173,56.7,31,0,8.05
316,Fox Lake,US,2022-04-25 20:31:34,42.3967,-88.1837,49.89,64,100,14.0
317,Khuzdar,PK,2022-04-25 20:31:34,27.7384,66.6434,76.73,17,1,2.98
318,Itarema,BR,2022-04-25 20:32:35,-2.9248,-39.9167,78.69,86,35,11.27
319,Seabra,BR,2022-04-25 20:32:35,-12.4186,-41.7703,71.29,58,0,4.97
320,Kavaratti,IN,2022-04-25 20:32:35,10.5669,72.642,84.24,76,34,5.86
321,Ballina,AU,2022-04-25 20:32:36,-28.8667,153.5667,60.76,93,100,2.3
322,Hambantota,LK,2022-04-25 20:32:36,6.1241,81.1185,79.79,84,13,3.4
323,Castelo Branco,PT,2022-04-25 20:32:14,39.8222,-7.4909,53.96,70,69,4.7
324,Buchanan,LR,2022-04-25 20:32:37,5.8808,-10.0467,80.42,83,100,11.16
325,Bilma,NE,2022-04-25 20:32:37,18.6853,12.9164,92.88,10,0,6.17
326,Hirara,JP,2022-04-25 20:32:37,24.8,125.2833,78.33,91,15,21.0
327,Solginskiy,RU,2022-04-25 20:32:38,61.05,41.3428,41.18,97,100,7.18
328,Homer,US,2022-04-25 20:32:38,59.6425,-151.5483,42.67,88,100,4.61
329,Marshfield,US,2022-04-25 20:29:35,44.6689,-90.1718,39.65,81,100,14.97
330,Tayginka,RU,2022-04-25 20:32:39,55.6244,60.5076,47.05,85,100,3.76
331,Swan River,CA,2022-04-25 20:28:08,52.1058,-101.2676,28.29,54,2,10.36
332,Iqaluit,CA,2022-04-25 20:30:13,63.7506,-68.5145,4.73,72,75,26.46
333,Senneterre,CA,2022-04-25 20:32:39,48.3835,-77.2328,54.91,90,100,7.07
334,Khani,GE,2022-04-25 20:32:40,41.9563,42.9566,53.17,57,0,6.69
335,Samarai,PG,2022-04-25 20:32:40,-10.6167,150.6667,82.96,77,89,13.06
336,San Patricio,US,2022-04-25 20:32:40,28.017,-97.5169,88.52,57,94,18.12
337,Manaure,CO,2022-04-25 20:32:41,11.7751,-72.4445,84.38,65,100,11.12
338,Flin Flon,CA,2022-04-25 20:32:41,54.7682,-101.865,28.24,29,0,6.91
339,Fort Payne,US,2022-04-25 20:29:22,34.4442,-85.7197,85.01,47,40,11.5
340,Preobrazheniye,RU,2022-04-25 20:32:41,42.9019,133.9064,48.7,84,100,3.42
341,Mecca,SA,2022-04-25 20:28:25,21.4267,39.8261,82.94,58,0,2.95
342,Melito Di Porto Salvo,IT,2022-04-25 20:32:42,37.9222,15.7714,62.74,82,100,14.97
343,Svetlogorsk,BY,2022-04-25 20:32:42,52.6333,29.7333,51.87,90,84,6.33
344,Gueret,FR,2022-04-25 20:32:42,46.1667,1.8667,43.56,98,30,2.64
345,Inta,RU,2022-04-25 20:32:43,66.0317,60.1659,31.24,86,96,8.9
346,Kaminskiy,RU,2022-04-25 20:32:43,57.1516,41.4732,52.57,74,100,11.48
347,Bagenalstown,IE,2022-04-25 20:32:44,52.7003,-6.9618,49.08,75,72,4.27
348,Orumiyeh,IR,2022-04-25 20:32:44,37.5527,45.0761,56.75,72,75,4.61
349,Knysna,ZA,2022-04-25 20:32:44,-34.0363,23.0471,55.58,82,0,4.25
350,Sayyan,YE,2022-04-25 20:32:45,15.1718,44.3244,60.75,55,77,3.87
351,Dewa,IN,2022-04-25 20:32:45,27.0333,81.1667,82.4,15,0,7.61
352,Adelaide,AU,2022-04-25 20:32:45,-34.9333,138.6,66.29,71,100,6.91
353,San Carlos,VE,2022-04-25 20:32:46,9.6612,-68.5827,89.2,47,97,3.4
354,Arica,CL,2022-04-25 20:32:09,-18.475,-70.3042,71.15,64,0,8.05
355,Caravelas,BR,2022-04-25 20:32:46,-17.7125,-39.2481,77.02,80,1,4.36
356,Kedrovyy,RU,2022-04-25 20:32:47,56.1667,91.8167,21.87,94,34,4.03
357,Ardakan,IR,2022-04-25 20:32:47,32.31,54.0175,71.64,38,99,11.05
358,Yerbogachen,RU,2022-04-25 20:32:47,61.2767,108.0108,22.87,99,95,2.93
359,San Policarpo,PH,2022-04-25 20:32:48,12.1791,125.5072,82.13,84,100,14.18
360,Beroroha,MG,2022-04-25 20:32:48,-21.6667,45.1667,75.6,66,84,2.64
361,Pevek,RU,2022-04-25 20:32:48,69.7008,170.3133,17.17,78,100,1.79
362,Sisimiut,GL,2022-04-25 20:32:49,66.9395,-53.6735,28.6,83,100,6.26
363,Naze,JP,2022-04-25 20:32:49,28.3667,129.4833,72.52,91,34,16.02
364,Berck,FR,2022-04-25 20:32:49,50.4,1.6,50.27,81,100,11.5
365,Mabaruma,GY,2022-04-25 20:32:50,8.2,-59.7833,78.87,90,100,3.94
366,Itamaraju,BR,2022-04-25 20:29:26,-17.0392,-39.5311,79.2,69,4,7.63
367,Nanzhou,CN,2022-04-25 20:33:50,29.3596,112.4024,66.06,94,59,3.44
368,Madaripur,BD,2022-04-25 20:33:50,23.1753,90.2072,78.6,91,0,5.61
369,Kaeo,NZ,2022-04-25 20:33:51,-35.1,173.7833,58.32,96,35,4.92
370,Victoria,HK,2022-04-25 20:29:27,22.2855,114.1577,80.65,82,10,5.99
371,Nichinan,JP,2022-04-25 20:33:51,31.6,131.3667,71.65,96,89,10.71
372,Muzhi,RU,2022-04-25 20:33:52,65.3667,64.6667,21.47,97,59,5.23
373,Aiquile,BO,2022-04-25 20:33:52,-18.2041,-65.1807,73.31,47,7,8.28
374,Dalvik,IS,2022-04-25 20:33:52,65.9702,-18.5286,42.73,83,93,1.83
375,Lubango,AO,2022-04-25 20:33:53,-14.9172,13.4925,59.61,59,4,1.05
376,Zhezkazgan,KZ,2022-04-25 20:33:53,47.8043,67.7144,49.46,46,5,6.06
377,Riyadh,SA,2022-04-25 20:33:53,24.6877,46.7219,69.94,46,100,16.96
378,Chihuahua,MX,2022-04-25 20:31:48,28.5,-106.0,77.83,18,0,9.89
379,Hami,CN,2022-04-25 20:33:54,42.8,93.45,61.21,25,98,24.54
380,Wajima,JP,2022-04-25 20:33:54,37.4,136.9,61.36,74,100,5.66
381,Atar,MR,2022-04-25 20:33:55,20.5169,-13.0499,82.27,31,0,8.99
382,Wagar,SD,2022-04-25 20:33:55,16.1525,36.2032,90.1,22,0,8.28
383,Awbari,LY,2022-04-25 20:33:55,26.5921,12.7805,81.1,11,100,12.91
384,Luena,AO,2022-04-25 20:33:56,-11.7833,19.9167,68.04,69,100,3.69
385,Jaguaruna,BR,2022-04-25 20:33:56,-28.615,-49.0256,72.66,76,98,12.1
386,Kawalu,ID,2022-04-25 20:33:56,-7.3817,108.2082,72.88,91,96,2.68
387,Bubaque,GW,2022-04-25 20:33:57,11.2833,-15.8333,77.72,78,6,16.96
388,Pano Aqil,PK,2022-04-25 20:33:57,27.8569,69.1116,85.89,10,0,5.91
389,Feni,BD,2022-04-25 20:33:57,23.0186,91.41,77.97,96,9,7.27
390,Nioro,GM,2022-04-25 20:30:10,13.35,-15.75,92.62,20,0,14.23
391,Poum,NC,2022-04-25 20:33:58,-20.2333,164.0167,74.41,66,100,11.92
392,Palmer,US,2022-04-25 20:33:58,42.1584,-72.3287,67.57,24,100,3.0
393,Itaituba,BR,2022-04-25 20:33:59,-4.2761,-55.9836,84.36,74,20,5.75
394,Pradera,CO,2022-04-25 20:33:59,3.4211,-76.2447,75.88,83,99,1.23
395,Berdigestyakh,RU,2022-04-25 20:33:59,62.0989,126.6992,10.63,96,87,1.36
396,Nyagan,RU,2022-04-25 20:32:09,62.1406,65.3936,32.76,97,100,2.71
397,Tuni,IN,2022-04-25 20:34:00,17.35,82.55,80.96,81,6,5.88
398,Opuwo,NA,2022-04-25 20:34:00,-18.0607,13.84,69.03,39,2,5.48
399,Viedma,AR,2022-04-25 20:34:01,-40.8135,-62.9967,60.4,26,100,18.03
400,Puerto Escondido,MX,2022-04-25 20:31:47,15.85,-97.0667,86.83,66,0,11.5
401,Erenhot,CN,2022-04-25 20:34:01,43.6475,111.9767,34.11,28,0,21.54
402,Tucumcari,US,2022-04-25 20:33:18,35.1717,-103.725,57.94,30,75,0.0
403,Nago,JP,2022-04-25 20:34:02,26.5881,127.9761,77.45,94,27,13.71
404,Bukachacha,RU,2022-04-25 20:34:02,52.9833,116.9167,27.09,71,100,4.65
405,Dotnuva,LT,2022-04-25 20:34:02,55.35,23.9,48.42,89,100,5.93
406,Aygut,AM,2022-04-25 20:34:03,40.6833,45.1729,51.49,80,0,1.25
407,Gallup,US,2022-04-25 20:34:03,35.5281,-108.7426,61.56,13,0,6.76
408,Dunedin,NZ,2022-04-25 20:30:54,-45.8742,170.5036,51.8,59,30,11.01
409,Hovd,MN,2022-04-25 20:34:04,48.0056,91.6419,34.14,27,100,2.93
410,Tatawin,TN,2022-04-25 20:34:04,32.9297,10.4518,63.19,70,100,13.47
411,Luganville,VU,2022-04-25 20:34:04,-15.5333,167.1667,79.38,80,77,8.59
412,Klaksvik,FO,2022-04-25 20:34:05,62.2266,-6.589,40.12,77,100,13.76
413,Ramgarh,IN,2022-04-25 20:35:05,23.6333,85.5167,83.44,13,0,4.94
414,Sinnamary,GF,2022-04-25 20:35:06,5.3833,-52.95,80.08,82,100,9.82
415,Sal Rei,CV,2022-04-25 20:35:06,16.1833,-22.9167,71.85,82,4,17.81
416,Somerset East,ZA,2022-04-25 20:35:06,-32.7217,25.588,51.89,81,82,2.15
417,Libreville,GA,2022-04-25 20:30:15,0.3925,9.4537,80.13,86,94,5.91
418,Cabedelo,BR,2022-04-25 20:35:07,-6.9811,-34.8339,81.27,85,47,12.24
419,North Bend,US,2022-04-25 20:30:16,43.4065,-124.2243,61.25,84,100,10.36
420,Pitimbu,BR,2022-04-25 20:35:07,-7.4706,-34.8086,81.19,85,64,12.3
421,Palana,RU,2022-04-25 20:35:08,59.1167,159.9667,26.35,86,99,9.24
422,Uncia,BO,2022-04-25 20:35:08,-18.467,-66.5685,58.37,15,11,12.28
423,Shakawe,BW,2022-04-25 20:35:08,-18.3667,21.85,71.62,48,75,1.61
424,Blackfoot,US,2022-04-25 20:31:07,43.1905,-112.345,61.88,28,100,10.22
425,Gamba,GA,2022-04-25 20:34:44,-2.65,10.0,77.74,89,100,5.12
426,Penzance,GB,2022-04-25 20:35:09,50.1186,-5.5371,47.08,79,2,8.52
427,Nalgonda,IN,2022-04-25 20:35:09,17.05,79.2667,86.05,47,49,5.68
428,Tefe,BR,2022-04-25 20:31:34,-3.3542,-64.7114,95.11,59,20,4.61
429,Florida,US,2022-04-25 20:33:49,28.7505,-82.5001,89.01,59,75,8.05
430,Pisco,PE,2022-04-25 20:35:10,-13.7,-76.2167,70.02,73,0,6.91
431,Baruun-Urt,MN,2022-04-25 20:35:11,46.6806,113.2792,28.22,72,84,14.36
432,Zhigansk,RU,2022-04-25 20:35:11,66.7697,123.3711,4.46,97,95,3.38
433,Kenora,CA,2022-04-25 20:35:11,49.8167,-94.4337,22.17,73,100,12.66
434,Coahuayana,MX,2022-04-25 20:35:12,18.7333,-103.6833,87.66,41,7,7.87
435,Flinders,AU,2022-04-25 20:35:12,-34.5833,150.8552,60.19,93,100,5.99
436,Honningsvag,NO,2022-04-25 20:35:13,70.9821,25.9704,28.15,59,75,23.02
437,Ola,RU,2022-04-25 20:35:13,59.5833,151.2833,27.19,62,100,9.06
438,Diamantino,BR,2022-04-25 20:35:13,-14.4086,-56.4461,85.26,59,31,4.45
439,Kati,ML,2022-04-25 20:35:14,12.7441,-8.0726,92.61,15,1,6.15
440,Inuvik,CA,2022-04-25 20:34:27,68.3499,-133.7218,41.86,50,75,6.91
441,Aljezur,PT,2022-04-25 20:35:14,37.3191,-8.8033,55.33,85,4,4.14
442,Camacha,PT,2022-04-25 20:35:14,33.0833,-16.3333,60.22,77,40,9.22
443,Taoudenni,ML,2022-04-25 20:35:15,22.6783,-3.9836,81.41,16,0,9.69
444,Gairo,IT,2022-04-25 20:35:15,39.8497,9.5047,49.17,66,63,4.79
445,Nueve De Julio,AR,2022-04-25 20:35:16,-35.4444,-60.8831,66.16,38,0,6.33
446,Dharchula,IN,2022-04-25 20:35:16,29.85,80.5333,64.72,32,1,7.96
447,Pacifica,US,2022-04-25 20:30:37,37.6138,-122.4869,77.43,71,0,18.41
448,Altamira,BR,2022-04-25 20:35:17,-3.2033,-52.2064,89.69,62,20,3.44
449,Batemans Bay,AU,2022-04-25 20:34:13,-35.7167,150.1833,56.37,89,98,3.44
450,Santiago Del Estero,AR,2022-04-25 20:35:17,-27.7951,-64.2615,90.84,45,7,1.36
451,Wanxian,CN,2022-04-25 20:35:18,30.8039,108.3897,69.4,91,100,0.65
452,Touros,BR,2022-04-25 20:35:18,-5.1989,-35.4608,79.11,82,21,11.54
453,Muroto,JP,2022-04-25 20:35:18,33.2833,134.15,67.17,93,100,2.42
454,Cairns,AU,2022-04-25 20:35:19,-16.9167,145.7667,75.07,100,100,0.0
455,Stropkov,SK,2022-04-25 20:35:19,49.2021,21.6522,52.2,92,80,1.99
456,Ponce,PR,2022-04-25 20:34:21,18.073,-66.6185,80.51,78,80,7.14
457,Amberley,US,2022-04-25 20:35:19,39.2048,-84.428,64.2,87,75,13.8
458,Abashiri,JP,2022-04-25 20:35:20,44.0213,144.2697,40.95,65,7,7.81
459,Waipawa,NZ,2022-04-25 20:36:20,-41.4122,175.5153,52.9,75,79,2.39
460,Lastoursville,GA,2022-04-25 20:36:21,-0.8143,12.7287,75.13,92,100,1.81
461,Berlevag,NO,2022-04-25 20:36:21,70.8578,29.0864,28.35,86,40,10.36
462,Villa Carlos Paz,AR,2022-04-25 20:36:21,-31.4241,-64.4978,75.4,25,0,8.99
463,Phan Thiet,VN,2022-04-25 20:36:22,10.9333,108.1,77.13,89,29,1.63
464,Synya,RU,2022-04-25 20:36:22,65.3718,58.0387,30.31,90,100,4.12
465,Katsuura,JP,2022-04-25 20:36:22,35.1333,140.3,67.03,92,99,6.06
466,Brewster,US,2022-04-25 20:36:23,41.3973,-73.6171,62.92,34,0,5.75
467,Ambulu,ID,2022-04-25 20:36:23,-8.345,113.6058,75.47,90,55,3.51
468,Pedernales,DO,2022-04-25 20:36:24,18.0384,-71.744,81.63,63,55,2.89
469,Maromitsa,RU,2022-04-25 20:36:24,59.8683,48.0123,43.54,96,100,6.96
470,Skogn,NO,2022-04-25 20:36:24,63.7,11.2,40.39,84,46,8.14
471,Dongfeng,CN,2022-04-25 20:36:25,42.6403,125.5118,57.45,77,49,16.22
472,Port-Cartier,CA,2022-04-25 20:36:25,50.0334,-66.8654,39.74,99,100,8.59
473,Oranjestad,AW,2022-04-25 20:36:26,12.524,-70.027,82.35,69,20,21.85
474,Bereda,ES,2022-04-25 20:36:26,43.2686,-7.5406,53.15,90,26,1.61
475,Tombouctou,ML,2022-04-25 20:36:26,20.0,-3.0,79.88,18,0,10.51
476,Quesnel,CA,2022-04-25 20:35:09,52.9999,-122.5029,55.9,38,75,17.27
477,Palauig,PH,2022-04-25 20:36:27,15.435,119.9045,81.82,68,77,4.21
478,Qinzhou,CN,2022-04-25 20:36:27,21.95,108.6167,76.06,93,21,8.63
479,Axim,GH,2022-04-25 20:36:28,4.8699,-2.2405,80.01,85,53,5.35
480,Sampit,ID,2022-04-25 20:36:28,-2.5333,112.95,74.17,99,84,2.62
481,Shiyan,CN,2022-04-25 20:36:28,32.6475,110.7781,60.96,84,77,5.39
482,Ganzhou,CN,2022-04-25 20:36:29,28.8184,115.4327,70.99,96,82,0.49
483,Tres Picos,MX,2022-04-25 20:36:29,15.8667,-93.5333,88.16,60,26,8.34
484,Denpasar,ID,2022-04-25 20:31:38,-8.65,115.2167,82.06,88,20,5.75
485,Tingi,TZ,2022-04-25 20:36:30,-11.3,35.0333,63.21,94,100,2.53
486,Emerald,AU,2022-04-25 20:35:43,-23.5333,148.1667,62.74,100,100,10.36
487,Rocha,UY,2022-04-25 20:36:30,-34.4833,-54.3333,66.31,97,100,4.99
488,Xai-Xai,MZ,2022-04-25 20:36:30,-25.0519,33.6442,72.25,91,24,12.35
489,Mastic Beach,US,2022-04-25 20:34:31,40.7668,-72.8521,60.98,46,0,13.8
490,Port Moresby,PG,2022-04-25 20:36:31,-9.4431,147.1797,76.42,94,40,5.75
491,Dicabisagan,PH,2022-04-25 20:36:31,17.0818,122.4157,78.33,87,49,3.27
492,Pedasi,PA,2022-04-25 20:36:31,7.5333,-80.0333,87.06,71,86,12.66
493,Lircay,PE,2022-04-25 20:36:32,-12.9896,-74.7205,58.17,57,95,8.43
494,Tonj,SS,2022-04-25 20:36:32,7.2737,28.6822,79.18,62,84,6.98
495,Namibe,AO,2022-04-25 20:36:33,-15.1961,12.1522,71.2,77,2,5.06
496,Cedar City,US,2022-04-25 20:36:33,37.6775,-113.0619,61.39,21,0,3.44
497,Bonavista,CA,2022-04-25 20:36:33,48.6499,-53.1147,37.09,87,94,14.34
498,Buraydah,SA,2022-04-25 20:36:34,26.326,43.975,73.85,35,45,7.09
499,Jalu,LY,2022-04-25 20:36:34,29.0331,21.5482,79.74,16,69,9.91
500,Bandarbeyla,SO,2022-04-25 20:36:34,9.4942,50.8122,81.5,73,99,5.73
501,Minab,IR,2022-04-25 20:36:35,27.1467,57.0801,75.52,60,4,1.14
502,Abu Samrah,SY,2022-04-25 20:36:35,35.3029,37.1841,69.13,44,6,4.27
503,Havoysund,NO,2022-04-25 20:36:35,70.9963,24.6622,28.63,74,100,27.98
504,Micheweni,TZ,2022-04-25 20:36:36,-4.9667,39.8333,80.02,84,52,7.65
505,Leningradskiy,RU,2022-04-25 20:36:36,69.3833,178.4167,13.68,93,64,9.04
506,Mount Gambier,AU,2022-04-25 20:37:36,-37.8333,140.7667,51.71,87,77,4.61
507,Hohhot,CN,2022-04-25 20:37:37,40.8106,111.6522,39.49,19,20,6.71
508,Chara,RU,2022-04-25 20:37:37,56.9064,118.2631,20.62,78,95,3.09
509,Nurota,UZ,2022-04-25 20:37:37,40.5614,65.6886,60.08,37,100,6.6
510,Barsovo,RU,2022-04-25 20:37:38,61.1667,73.1667,33.93,99,100,2.1
511,Beringovskiy,RU,2022-04-25 20:37:38,63.05,179.3167,28.92,96,100,24.99
512,Surazh,RU,2022-04-25 20:37:38,53.0175,32.3918,49.68,92,69,3.09
513,Seoul,KR,2022-04-25 20:36:00,37.5683,126.9778,62.17,88,100,8.05
514,San Luis,AR,2022-04-25 20:37:39,-33.295,-66.3356,80.56,26,0,7.29
515,Goderich,CA,2022-04-25 20:37:39,43.7501,-81.7165,52.12,87,100,8.05
516,Paamiut,GL,2022-04-25 20:37:40,61.994,-49.6678,30.4,89,100,12.1
517,Pensacola,US,2022-04-25 20:36:13,30.4213,-87.2169,86.41,75,20,13.8
518,Surenavan,AM,2022-04-25 20:37:40,39.75,44.8,64.42,46,19,5.95
519,Airai,TL,2022-04-25 20:37:40,-8.9266,125.4092,57.31,73,48,1.21
520,Baoshan,CN,2022-04-25 20:37:41,46.5586,131.4244,50.27,60,100,2.77
521,Tweed,CA,2022-04-25 20:37:41,44.4751,-77.3162,68.99,90,100,9.04
522,Svay Rieng,KH,2022-04-25 20:37:42,11.0879,105.7993,80.8,76,87,6.89
523,Chitral,PK,2022-04-25 20:37:42,35.8462,71.7858,59.04,44,0,5.84
524,Jumla,NP,2022-04-25 20:37:42,29.2747,82.1838,48.99,42,0,4.36
525,Garowe,SO,2022-04-25 20:37:43,8.4054,48.4845,76.89,66,87,9.33
526,Sawtell,AU,2022-04-25 20:37:43,-30.3833,153.1,63.19,94,100,5.75
527,Adrar,MR,2022-04-25 20:37:43,20.5022,-10.0711,78.55,26,0,10.49
528,Shenjiamen,CN,2022-04-25 20:37:44,29.9576,122.298,62.69,99,100,16.22
529,Araguaina,BR,2022-04-25 20:32:53,-7.1911,-48.2072,79.63,71,14,4.59
530,Almetyevsk,RU,2022-04-25 20:37:44,54.9044,52.3154,50.05,80,43,6.06
531,Solnechnyy,RU,2022-04-25 20:37:45,50.7214,136.6319,25.95,92,100,3.47
532,Kantang,TH,2022-04-25 20:37:45,7.4054,99.5156,77.74,92,99,2.13
533,Kurganinsk,RU,2022-04-25 20:37:45,44.88,40.5986,58.95,81,85,8.43
534,Ginda,IN,2022-04-25 20:37:46,30.6945,78.4932,59.22,33,98,7.83
535,Chifeng,CN,2022-04-25 20:37:46,42.2683,118.9636,50.34,15,40,13.4
536,Khorixas,NA,2022-04-25 20:37:46,-20.3667,14.9667,70.83,39,38,4.29
537,Sakaiminato,JP,2022-04-25 20:37:47,35.55,133.2333,67.98,73,75,8.05
538,Saint-Pierre,RE,2022-04-25 20:37:47,-21.3393,55.4781,73.9,79,75,6.91
539,Nyurba,RU,2022-04-25 20:35:45,63.2842,118.3319,22.19,96,100,1.34
540,Ko Samui,TH,2022-04-25 20:32:48,9.5357,99.9357,84.9,72,78,8.81
541,Bela,IN,2022-04-25 20:37:48,25.9333,81.9833,86.76,14,0,5.86
542,Winchester,GB,2022-04-25 20:35:24,51.0651,-1.3187,52.48,64,75,6.91
543,Curup,ID,2022-04-25 20:37:48,-3.4667,102.5333,67.95,98,100,1.83
544,Tocopilla,CL,2022-04-25 20:37:48,-22.092,-70.1979,67.8,74,100,7.09
545,Ouango,CF,2022-04-25 20:37:49,4.3133,22.5552,70.99,93,81,0.67
546,Verkhnevilyuysk,RU,2022-04-25 20:37:49,63.4453,120.3167,21.74,95,98,1.92
547,Ossora,RU,2022-04-25 20:37:49,59.2353,163.0719,29.05,92,100,9.44
548,Vao,NC,2022-04-25 20:37:50,-22.6667,167.4833,74.84,54,100,20.62
549,Tautira,PF,2022-04-25 20:37:50,-17.7333,-149.15,80.83,74,8,11.03
550,Saint-Louis,SN,2022-04-25 20:37:50,16.3333,-15.0,83.84,33,4,17.16
551,Valdivia,CL,2022-04-25 20:37:51,-39.8142,-73.2459,51.89,94,100,14.67
552,Guerrero Negro,MX,2022-04-25 20:37:51,27.9769,-114.0611,82.62,21,0,12.44
553,Bokoro,TD,2022-04-25 20:37:51,12.3807,17.0568,94.93,27,87,8.01
554,Bumba,CD,2022-04-25 20:38:52,2.1833,22.4667,73.4,88,69,0.51
555,Biak,ID,2022-04-25 20:38:52,-0.9131,122.8766,76.41,84,72,2.75
556,Drummondville,CA,2022-04-25 20:34:28,45.8834,-72.4824,69.03,36,100,4.0
557,Severodvinsk,RU,2022-04-25 20:38:53,64.5635,39.8302,33.91,98,100,4.5
558,Raisio,FI,2022-04-25 20:38:53,60.4859,22.169,40.28,75,0,6.91
559,Imbituba,BR,2022-04-25 20:34:05,-28.24,-48.6703,77.86,83,84,16.91
560,Matay,EG,2022-04-25 20:38:54,28.419,30.7792,78.78,30,43,18.1
561,Sorong,ID,2022-04-25 20:38:54,-0.8833,131.25,77.47,90,100,9.62
562,Zhuhai,CN,2022-04-25 20:38:54,22.2769,113.5678,80.85,94,40,5.75
563,Awjilah,LY,2022-04-25 20:38:55,29.1081,21.2869,80.15,15,62,10.02
564,Puerto Boyaca,CO,2022-04-25 20:38:55,5.9758,-74.5885,76.17,89,100,2.46
565,Vondrozo,MG,2022-04-25 20:38:55,-22.8167,47.2833,65.14,98,99,3.06
566,Birao,CF,2022-04-25 20:38:56,10.2849,22.7882,87.08,38,100,5.3
567,Jishui,CN,2022-04-25 20:38:56,33.7333,115.4,61.74,97,93,5.88
568,Luwuk,ID,2022-04-25 20:38:57,-0.9516,122.7875,77.52,86,89,2.35
569,Yulara,AU,2022-04-25 20:38:57,-25.2406,130.9889,58.84,82,99,4.61
570,Deputatskiy,RU,2022-04-25 20:38:57,69.3,139.9,7.41,95,100,0.38
571,Pontianak,ID,2022-04-25 20:38:58,-0.0333,109.3333,75.18,100,100,2.3
572,Kiama,AU,2022-04-25 20:38:58,-34.6833,150.8667,60.39,95,100,1.01
573,Horsham,GB,2022-04-25 20:36:55,51.064,-0.3272,51.53,78,0,5.75
574,Garissa,KE,2022-04-25 20:38:58,-0.4536,39.6401,82.11,68,86,14.2
575,Coquimbo,CL,2022-04-25 20:36:50,-29.9533,-71.3436,56.93,100,100,12.66
576,Mbaiki,CF,2022-04-25 20:39:00,3.8678,17.9892,74.61,76,85,1.79
577,Sungairaya,ID,2022-04-25 20:39:00,0.7,108.9,76.48,92,100,6.58
578,Tilichiki,RU,2022-04-25 20:39:01,60.4667,166.1,25.79,91,100,11.27
579,Hualmay,PE,2022-04-25 20:39:01,-11.0964,-77.6139,70.21,77,100,10.11
580,Phalombe,MW,2022-04-25 20:39:01,-15.8064,35.6507,65.17,91,14,2.44
581,Zemio,CF,2022-04-25 20:39:02,5.0314,25.1361,69.26,97,94,1.3
582,Half Moon Bay,US,2022-04-25 20:38:14,37.4636,-122.4286,78.89,64,0,18.41
583,Ilam,NP,2022-04-25 20:39:02,26.9167,87.9167,66.11,50,0,5.37
584,Iskateley,RU,2022-04-25 20:39:03,67.6803,53.1512,28.99,97,99,8.01
585,Raudeberg,NO,2022-04-25 20:39:03,61.9875,5.1352,45.27,85,15,25.1
586,Kulhudhuffushi,MV,2022-04-25 20:39:03,6.6221,73.07,84.13,71,99,3.2
587,Puerto Leguizamo,CO,2022-04-25 20:39:04,-0.1934,-74.7819,80.87,88,90,1.68
588,Port Hedland,AU,2022-04-25 20:39:04,-20.3167,118.5667,71.65,88,48,4.61
589,Amudat,UG,2022-04-25 20:39:04,1.95,34.95,68.04,87,99,2.51
590,Srednekolymsk,RU,2022-04-25 20:39:05,67.45,153.6833,7.18,94,100,3.49
591,Kloulklubed,PW,2022-04-25 20:39:05,7.0419,134.2556,83.32,79,100,18.07
592,Jaicos,BR,2022-04-25 20:39:05,-7.3592,-41.1378,80.92,50,18,5.03
593,Macklin,CA,2022-04-25 20:37:48,52.3334,-109.9348,59.34,40,14,20.15
594,Veraval,IN,2022-04-25 20:39:06,20.9,70.3667,81.39,65,0,11.54
595,Anantapur,IN,2022-04-25 20:34:40,14.6833,77.6,90.12,34,57,9.42
