City_ID,City,Country,Date,Lat,Lng,Max Temp,Humidity,Cloudiness,Wind Speed
0,Hobart,AU,2022-04-26 19:33:01,-42.8794,147.3294,49.05,94,92,6.91
1,Luderitz,NA,2022-04-26 19:33:02,-26.6481,15.1594,67.32,41,0,9.19
2,Varniai,LT,2022-04-26 19:33:02,55.7406,22.3644,39.61,87,45,6.49
3,Bengkulu,ID,2022-04-26 19:33:02,-3.8004,102.2655,77.47,89,53,5.44
4,Rikitea,PF,2022-04-26 19:33:03,-23.1203,-134.9692,78.15,74,100,22.57
5,Touros,BR,2022-04-26 19:33:03,-5.1989,-35.4608,81.18,75,7,14.32
6,Yar-Sale,RU,2022-04-26 19:33:03,66.8333,70.8333,29.53,95,100,19.46
7,Chokurdakh,RU,2022-04-26 19:33:04,70.6333,147.9167,4.95,98,100,6.42
8,Tomohon,ID,2022-04-26 19:33:04,1.3346,124.8392,68.94,90,99,1.68
9,Dikson,RU,2022-04-26 19:33:05,73.5069,80.5464,2.61,98,94,9.75
10,Mataura,NZ,2022-04-26 19:33:05,-46.1927,168.8643,51.48,99,89,1.99
11,Ushuaia,AR,2022-04-26 19:31:40,-54.8,-68.3,40.66,75,75,5.75
12,Punta Arenas,CL,2022-04-26 19:33:05,-53.15,-70.9167,42.91,61,75,9.22
13,Esterhazy,CA,2022-04-26 19:33:06,50.65,-102.0843,31.05,57,60,16.75
14,Albany,US,2022-04-26 19:30:45,42.6001,-73.9662,54.27,85,100,1.52
15,Lake Havasu City,US,2022-04-26 19:33:06,34.4839,-114.3224,91.06,3,0,7.0
16,Mangochi,MW,2022-04-26 19:33:07,-14.4782,35.2645,70.86,84,66,6.64
17,Ancud,CL,2022-04-26 19:33:07,-41.8697,-73.8203,42.22,70,100,16.04
18,Hudson Bay,CA,2022-04-26 19:33:07,52.85,-102.3842,40.1,50,0,10.09
19,Tasiilaq,GL,2022-04-26 19:33:08,65.6145,-37.6368,33.96,89,87,3.36
20,New Norfolk,AU,2022-04-26 19:33:08,-42.7826,147.0587,48.7,89,100,2.08
21,Torbay,CA,2022-04-26 19:30:01,47.6666,-52.7314,42.76,89,100,14.0
22,Manggar,ID,2022-04-26 19:33:08,-2.8833,108.2667,80.35,80,100,1.77
23,Benghazi,LY,2022-04-26 19:33:09,32.1167,20.0667,70.65,46,21,18.59
24,Ponta Do Sol,PT,2022-04-26 19:33:09,32.6667,-17.1,67.01,73,35,4.59
25,Hithadhoo,MV,2022-04-26 19:33:09,-0.6,73.0833,84.85,73,100,8.46
26,Qaanaaq,GL,2022-04-26 19:33:10,77.484,-69.3632,16.56,76,31,3.44
27,Cayenne,GF,2022-04-26 19:30:08,4.9333,-52.3333,87.84,1,0,12.66
28,Den Helder,NL,2022-04-26 19:33:02,52.9599,4.7593,48.18,73,100,7.0
29,Maldonado,UY,2022-04-26 19:33:11,-34.6667,-54.9167,78.19,77,52,12.48
30,Selma,US,2022-04-26 19:33:11,36.5708,-119.6121,77.02,38,100,7.29
31,Bredasdorp,ZA,2022-04-26 19:33:11,-34.5322,20.0403,56.12,75,1,1.66
32,Mocajuba,BR,2022-04-26 19:33:12,-2.5842,-49.5072,78.08,95,100,2.17
33,Homer,US,2022-04-26 19:33:12,59.6425,-151.5483,47.77,85,40,5.75
34,Puerto Ayora,EC,2022-04-26 19:29:51,-0.7393,-90.3518,78.76,75,75,7.99
35,Chingirlau,KZ,2022-04-26 19:33:12,51.095,54.0814,57.06,57,92,10.33
36,Sarakhs,IR,2022-04-26 19:33:13,36.5449,61.1577,69.94,46,97,4.61
37,La Cruz,MX,2022-04-26 19:33:13,23.9167,-106.9,83.82,40,3,8.34
38,Los Llanos De Aridane,ES,2022-04-26 19:29:02,28.6585,-17.9182,62.35,77,20,16.11
39,Butaritari,KI,2022-04-26 19:33:14,3.0707,172.7902,81.01,83,35,19.19
40,Vaini,TO,2022-04-26 19:33:14,-21.2,-175.2,73.56,78,20,9.22
41,Ribeira Grande,PT,2022-04-26 19:33:14,38.5167,-28.7,63.0,88,40,14.97
42,Vanimo,PG,2022-04-26 19:33:15,-2.6741,141.3028,77.88,90,100,5.86
43,Port Alfred,ZA,2022-04-26 19:30:24,-33.5906,26.891,58.17,91,6,4.0
44,Itaituba,BR,2022-04-26 19:33:15,-4.2761,-55.9836,91.56,62,20,5.75
45,Severo-Kurilsk,RU,2022-04-26 19:33:16,50.6789,156.125,30.72,83,70,8.01
46,Kita,ML,2022-04-26 19:33:16,13.0349,-9.4895,93.02,13,1,5.26
47,Kismayo,SO,2022-04-26 19:33:16,-0.3582,42.5454,81.59,78,81,5.14
48,Jamestown,US,2022-04-26 19:34:17,42.097,-79.2353,47.01,56,100,8.05
49,Sitka,US,2022-04-26 19:34:17,57.0531,-135.33,44.49,81,100,4.61
50,Belaya Gora,RU,2022-04-26 19:34:18,68.5333,146.4167,10.09,94,100,5.91
51,Upernavik,GL,2022-04-26 19:34:11,72.7868,-56.1549,30.2,74,92,6.67
52,Hermanus,ZA,2022-04-26 19:34:18,-34.4187,19.2345,57.87,76,0,8.48
53,Constitucion,CL,2022-04-26 19:30:34,-35.3333,-72.4167,54.19,82,80,7.0
54,Atasu,KZ,2022-04-26 19:34:19,48.6814,71.6433,49.95,44,92,6.11
55,Hilo,US,2022-04-26 19:31:39,19.7297,-155.09,78.28,89,75,5.75
56,Nikolskoye,RU,2022-04-26 19:34:19,59.7035,30.7861,41.88,78,84,7.16
57,Bethel,US,2022-04-26 19:33:14,41.3712,-73.414,56.62,91,100,1.01
58,Filadelfia,US,2022-04-26 19:34:20,39.9523,-75.1638,71.94,64,75,18.41
59,Bartica,GY,2022-04-26 19:34:21,6.4,-58.6167,86.32,90,100,3.62
60,Bluff,NZ,2022-04-26 19:34:22,-46.6,168.3333,51.8,81,74,7.63
61,Yatou,CN,2022-04-26 19:34:22,37.15,122.3833,50.34,55,53,11.27
62,Moerai,PF,2022-04-26 19:34:23,-22.4333,-151.3333,79.93,82,91,18.45
63,Kepno,PL,2022-04-26 19:34:23,51.2784,17.9891,44.51,77,45,2.64
64,Saint-Georges,GD,2022-04-26 19:34:23,12.0564,-61.7485,82.08,83,75,17.27
65,Faanui,PF,2022-04-26 19:34:24,-16.4833,-151.75,82.72,72,30,20.27
66,Biak,ID,2022-04-26 19:34:24,-0.9131,122.8766,77.27,85,100,2.17
67,Tuatapere,NZ,2022-04-26 19:30:44,-46.1333,167.6833,51.69,90,100,6.78
68,Port Elizabeth,ZA,2022-04-26 19:34:24,-33.918,25.5701,59.29,82,0,12.66
69,Busselton,AU,2022-04-26 19:34:25,-33.65,115.3333,56.28,87,72,3.02
70,Cidreira,BR,2022-04-26 19:34:25,-30.1811,-50.2056,72.28,86,11,10.56
71,Annau,TM,2022-04-26 19:34:25,37.8876,58.516,65.7,52,20,2.3
72,Matara,LK,2022-04-26 19:34:26,5.9485,80.5353,78.82,86,91,1.63
73,Wamba,NG,2022-04-26 19:34:26,8.9333,8.6,78.64,65,95,4.47
74,Basoko,CD,2022-04-26 19:34:27,1.2391,23.616,70.88,95,71,3.94
75,Kamenka,RU,2022-04-26 19:34:27,51.3223,42.7678,58.96,76,95,5.88
76,Kavaratti,IN,2022-04-26 19:34:27,10.5669,72.642,85.03,74,32,7.27
77,Nanortalik,GL,2022-04-26 19:31:29,60.1432,-45.2371,37.45,82,100,5.35
78,Thompson,CA,2022-04-26 19:34:28,55.7435,-97.8558,35.76,25,0,4.61
79,Alta Floresta,BR,2022-04-26 19:34:28,-9.8756,-56.0861,94.82,43,40,10.36
80,Karratha,AU,2022-04-26 19:34:28,-20.7377,116.8463,79.72,57,100,12.1
81,Kuppam,IN,2022-04-26 19:34:29,12.75,78.3667,78.31,52,0,2.95
82,Galeana,MX,2022-04-26 19:34:29,24.8333,-100.0667,60.35,82,82,7.54
83,Vila Franca Do Campo,PT,2022-04-26 19:34:29,37.7167,-25.4333,63.01,82,34,8.14
84,Kamina,CD,2022-04-26 19:34:30,-8.7386,24.9906,65.59,91,80,0.87
85,Kapaa,US,2022-04-26 19:34:30,22.0752,-159.319,76.98,91,100,18.41
86,Berlevag,NO,2022-04-26 19:33:18,70.8578,29.0864,19.2,78,100,33.2
87,Esqueda,MX,2022-04-26 19:34:31,30.7167,-109.5833,83.73,16,37,3.11
88,Havoysund,NO,2022-04-26 19:34:31,70.9963,24.6622,21.43,65,100,27.34
89,Pisco,PE,2022-04-26 19:34:31,-13.7,-76.2167,71.65,68,0,16.11
90,Atuona,PF,2022-04-26 19:34:32,-9.8,-139.0333,79.27,72,25,23.15
91,Sal Rei,CV,2022-04-26 19:34:32,16.1833,-22.9167,73.6,68,40,19.57
92,Aripuana,BR,2022-04-26 19:34:32,-9.1667,-60.6333,86.34,62,73,2.26
93,Gisborne,NZ,2022-04-26 19:34:33,-38.6533,178.0042,54.84,81,26,5.37
94,Dunhua,CN,2022-04-26 19:34:33,43.3725,128.2425,37.4,40,0,16.75
95,Flagstaff,US,2022-04-26 19:31:15,35.1981,-111.6513,71.26,17,0,16.11
96,Fortuna,US,2022-04-26 19:34:56,40.5982,-124.1573,58.93,59,40,16.11
97,Avarua,CK,2022-04-26 19:35:34,-21.2078,-159.775,80.65,89,20,3.44
98,Namatanai,PG,2022-04-26 19:31:31,-3.6667,152.4333,80.17,81,12,7.65
99,Kavieng,PG,2022-04-26 19:34:06,-2.5744,150.7967,82.96,77,4,14.2
100,Arraial Do Cabo,BR,2022-04-26 19:35:34,-22.9661,-42.0278,82.36,83,0,16.11
101,Carnarvon,AU,2022-04-26 19:35:35,-24.8667,113.6333,71.67,53,40,21.85
102,Kirakira,SB,2022-04-26 19:35:35,-10.4544,161.9205,80.58,81,67,4.5
103,Pochutla,MX,2022-04-26 19:35:35,15.7432,-96.4661,87.82,48,56,9.37
104,Ballina,AU,2022-04-26 19:35:36,-28.8667,153.5667,62.56,100,75,4.61
105,Marfino,RU,2022-04-26 19:35:36,55.7028,37.3822,55.31,56,0,6.71
106,High Level,CA,2022-04-26 19:33:22,58.5169,-117.136,46.51,53,40,9.22
107,Atar,MR,2022-04-26 19:35:36,20.5169,-13.0499,80.06,23,0,10.4
108,Coquimbo,CL,2022-04-26 19:35:37,-29.9533,-71.3436,65.93,68,20,9.22
109,Padang,ID,2022-04-26 19:34:17,-0.9492,100.3543,78.67,86,100,3.67
110,Sioux Lookout,CA,2022-04-26 19:35:37,50.1001,-91.917,28.47,40,100,4.61
111,Nenjiang,CN,2022-04-26 19:35:38,49.1833,125.2167,32.32,67,44,7.29
112,Cape Town,ZA,2022-04-26 19:35:38,-33.9258,18.4232,61.21,73,0,16.11
113,Namibe,AO,2022-04-26 19:35:39,-15.1961,12.1522,71.64,74,1,4.81
114,Olinda,BR,2022-04-26 19:35:39,-8.0089,-34.8553,83.93,65,40,12.66
115,Neyshabur,IR,2022-04-26 19:35:39,36.2133,58.7958,68.22,32,100,7.27
116,Lagoa,PT,2022-04-26 19:35:40,39.05,-27.9833,61.2,84,100,21.81
117,Katherine,AU,2022-04-26 19:35:40,-14.4667,132.2667,75.52,73,100,6.91
118,Yellowknife,CA,2022-04-26 19:30:59,62.456,-114.3525,43.32,52,40,9.22
119,Tiksi,RU,2022-04-26 19:35:40,71.6872,128.8694,-5.24,100,59,3.53
120,Cherskiy,RU,2022-04-26 19:35:41,68.75,161.3,28.44,87,100,3.69
121,Omboue,GA,2022-04-26 19:35:41,-1.5746,9.2618,78.82,89,100,5.75
122,Castro,BR,2022-04-26 19:35:41,-24.7911,-50.0119,73.15,75,50,3.78
123,Khatanga,RU,2022-04-26 19:35:42,71.9667,102.5,10.36,94,100,7.05
124,Mahebourg,MU,2022-04-26 19:31:43,-20.4081,57.7,76.24,88,75,10.36
125,Leningradskiy,RU,2022-04-26 19:35:00,69.3833,178.4167,10.45,90,63,10.4
126,East London,ZA,2022-04-26 19:31:38,-33.0153,27.9116,61.97,79,3,12.97
127,Alindao,CF,2022-04-26 19:35:42,5.0267,21.2088,72.7,87,94,3.53
128,Mandalgovi,MN,2022-04-26 19:35:43,45.7625,106.2708,32.18,24,76,10.54
129,Agra,IN,2022-04-26 19:35:43,27.1833,78.0167,89.91,12,0,4.7
130,Tres Lagoas,BR,2022-04-26 19:32:53,-20.7511,-51.6783,93.29,28,33,9.33
131,Grand Gaube,MU,2022-04-26 19:35:43,-20.0064,57.6608,76.37,76,9,3.0
132,Rio Grande City,US,2022-04-26 19:35:44,26.3798,-98.8203,75.87,73,96,14.58
133,Tual,ID,2022-04-26 19:35:44,-5.6667,132.75,83.5,73,97,4.34
134,La Macarena,CO,2022-04-26 19:35:45,2.1837,-73.7849,82.38,80,52,2.44
135,Richards Bay,ZA,2022-04-26 19:35:45,-28.783,32.0377,65.7,75,99,7.78
136,Kruisfontein,ZA,2022-04-26 19:35:45,-34.0033,24.7314,52.88,93,0,7.34
137,Burley,US,2022-04-26 19:35:46,42.5357,-113.7928,62.56,32,0,11.5
138,Povrly,CZ,2022-04-26 19:35:46,50.6728,14.1603,53.08,83,100,2.48
139,Lorengau,PG,2022-04-26 19:35:46,-2.0226,147.2712,81.14,83,34,7.9
140,Puerto Lleras,CO,2022-04-26 19:36:47,3.0223,-73.4044,87.31,59,43,1.57
141,Jiujiang,CN,2022-04-26 19:36:47,29.7333,115.9833,68.99,87,100,8.59
142,Katangli,RU,2022-04-26 19:36:47,51.7102,143.2326,28.85,97,100,27.27
143,Viedma,AR,2022-04-26 19:36:48,-40.8135,-62.9967,68.27,29,100,13.04
144,Delemont,CH,2022-04-26 19:36:48,47.3649,7.3445,51.67,87,6,2.62
145,Necochea,AR,2022-04-26 19:36:47,-38.5473,-58.7368,68.85,81,100,15.14
146,Avera,US,2022-04-26 19:36:49,33.194,-82.5271,80.65,69,86,9.84
147,Amuntai,ID,2022-04-26 19:36:49,-2.4177,115.2494,72.61,99,100,0.74
148,Manokwari,ID,2022-04-26 19:36:18,-0.8667,134.0833,78.21,78,79,3.27
149,Thongwa,MM,2022-04-26 19:36:49,16.7619,96.5278,82.56,70,38,7.85
150,Faya,SA,2022-04-26 19:36:50,18.3851,42.4509,57.31,39,16,2.84
151,Dauphin,CA,2022-04-26 19:36:50,51.1494,-100.0502,28.54,59,0,17.27
152,Kondinskoye,RU,2022-04-26 19:36:50,59.6481,67.41,41.95,85,98,11.05
153,Karachi,PK,2022-04-26 19:35:03,24.9056,67.0822,82.22,78,0,6.91
154,Vaitape,PF,2022-04-26 19:36:51,-16.5167,-151.75,82.74,72,29,20.22
155,Praia,CV,2022-04-26 19:36:51,14.9215,-23.5087,73.94,73,20,20.71
156,Provideniya,RU,2022-04-26 19:36:52,64.3833,-173.3,28.96,81,44,8.66
157,Victoria,HK,2022-04-26 19:33:53,22.2855,114.1577,80.65,89,2,7.0
158,Maunabo,PR,2022-04-26 19:36:52,18.0072,-65.8993,83.7,62,100,15.1
159,Tuktoyaktuk,CA,2022-04-26 19:36:52,69.4541,-133.0374,14.0,85,100,8.05
160,Rawson,AR,2022-04-26 19:36:53,-43.3002,-65.1023,63.07,25,100,19.01
161,Ninghai,CN,2022-04-26 19:36:53,29.2892,121.4247,61.88,97,100,5.91
162,Longyearbyen,SJ,2022-04-26 19:36:53,78.2186,15.6401,1.24,71,40,17.27
163,Warri,NG,2022-04-26 19:36:54,5.5167,5.75,79.11,89,38,6.24
164,Badarganj,BD,2022-04-26 19:36:54,25.674,89.0549,81.19,68,0,8.39
165,Dunedin,NZ,2022-04-26 19:36:54,-45.8742,170.5036,54.81,77,89,10.0
166,Lima,PE,2022-04-26 19:33:40,-12.0432,-77.0282,70.05,64,0,9.22
167,Harbour Breton,CA,2022-04-26 19:36:55,47.4833,-55.7983,43.16,75,100,8.14
168,Grindavik,IS,2022-04-26 19:32:59,63.8424,-22.4338,46.35,76,75,4.61
169,Capinzal,BR,2022-04-26 19:36:55,-27.3436,-51.6119,78.69,74,57,0.38
170,Mogadishu,SO,2022-04-26 19:36:56,2.0371,45.3438,82.74,74,71,8.7
171,Noumea,NC,2022-04-26 19:36:56,-22.2763,166.4572,73.0,99,100,10.65
172,La Rioja,ES,2022-04-26 19:36:56,42.25,-2.5,55.18,74,100,5.79
173,Imst,AT,2022-04-26 19:36:57,47.2684,10.6698,33.58,96,25,4.23
174,Codrington,AU,2022-04-26 19:36:57,-38.2667,141.9667,59.9,77,100,9.37
175,Adrar,MR,2022-04-26 19:36:57,20.5022,-10.0711,76.55,25,0,10.49
176,Algiers,DZ,2022-04-26 19:36:58,36.7525,3.042,58.82,88,75,2.3
177,Narathiwat,TH,2022-04-26 19:36:58,6.3333,101.75,76.08,93,91,3.38
178,Evanston,US,2022-04-26 19:33:39,42.0411,-87.6901,50.11,48,75,14.97
179,Izberbash,RU,2022-04-26 19:36:58,42.5696,47.8645,53.65,65,98,11.12
180,Saint-Philippe,RE,2022-04-26 19:36:59,-21.3585,55.7679,73.22,83,37,11.9
181,Villa Del Rosario,CO,2022-04-26 19:36:59,7.8339,-72.4742,86.38,55,40,5.75
182,Coahuayana,MX,2022-04-26 19:36:59,18.7333,-103.6833,89.56,41,0,8.61
183,Miragoane,HT,2022-04-26 19:37:00,18.4423,-73.0876,80.13,66,12,6.67
184,North Bend,US,2022-04-26 19:36:54,43.4065,-124.2243,55.92,83,75,14.97
185,Dwarka,IN,2022-04-26 19:37:00,22.2394,68.9678,81.36,78,0,10.83
186,Bathsheba,BB,2022-04-26 19:36:27,13.2167,-59.5167,81.21,83,75,9.22
187,Bajil,YE,2022-04-26 19:37:01,15.0584,43.2851,88.95,34,100,4.92
188,Wenchi,GH,2022-04-26 19:38:01,7.7392,-2.1046,83.1,57,82,7.2
189,Xingyi,CN,2022-04-26 19:38:01,24.1877,102.817,59.13,46,0,3.53
190,Lebu,CL,2022-04-26 19:38:02,-37.6167,-73.65,52.29,80,6,9.82
191,Laguna,US,2022-04-26 19:38:02,38.421,-121.4238,75.06,40,0,4.61
192,Husavik,IS,2022-04-26 19:38:02,66.0449,-17.3389,39.63,95,100,1.19
193,Vila Velha,BR,2022-04-26 19:38:03,-20.3297,-40.2925,84.15,84,20,10.36
194,Shingu,JP,2022-04-26 19:38:03,33.7333,135.9833,67.89,98,100,5.23
195,Buala,SB,2022-04-26 19:38:03,-8.145,159.5921,80.35,80,82,3.78
196,Alekseyevsk,RU,2022-04-26 19:38:04,57.8406,108.3492,32.09,97,100,10.11
197,Tilichiki,RU,2022-04-26 19:38:04,60.4667,166.1,29.53,96,100,6.85
198,Kinkala,CG,2022-04-26 19:38:04,-4.3614,14.7644,72.55,92,100,1.88
199,Mulege,MX,2022-04-26 19:38:05,26.8833,-111.9833,87.69,18,0,11.83
200,Geraldton,AU,2022-04-26 19:37:59,-28.7667,114.6,61.21,88,75,11.5
201,Wangjing,IN,2022-04-26 19:38:06,24.6,94.0333,63.57,83,0,0.85
202,Northam,GB,2022-04-26 19:38:05,51.0333,-4.2167,54.61,55,24,6.85
203,Wawa,NG,2022-04-26 19:38:06,9.9022,4.4192,90.75,29,96,3.49
204,Kaitangata,NZ,2022-04-26 19:38:06,-46.2817,169.8464,49.44,93,83,6.76
205,Georgetown,MY,2022-04-26 19:38:07,5.4112,100.3354,80.53,93,40,8.05
206,Beringovskiy,RU,2022-04-26 19:38:08,63.05,179.3167,32.11,99,100,9.6
207,Jertih,MY,2022-04-26 19:38:09,5.7336,102.4897,76.95,93,68,2.57
208,Iqaluit,CA,2022-04-26 19:38:09,63.7506,-68.5145,6.53,55,40,2.3
209,Kodiak,US,2022-04-26 19:38:09,57.79,-152.4072,45.91,53,100,12.66
210,Marzuq,YE,2022-04-26 19:38:10,14.4,46.4667,75.81,61,74,3.71
211,Bairiki,KI,2022-04-26 19:38:10,1.3292,172.9752,80.6,83,20,11.5
212,Broken Hill,AU,2022-04-26 19:38:11,-31.95,141.4333,56.91,94,100,4.61
213,Tiquisio,CO,2022-04-26 19:38:11,8.5597,-74.2669,91.89,54,100,2.3
214,Agadir,MA,2022-04-26 19:38:11,30.4202,-9.5982,64.85,52,0,14.34
215,Kourou,GF,2022-04-26 19:38:12,5.1552,-52.6478,86.05,75,100,7.07
216,Mataram,ID,2022-04-26 19:38:12,-8.5833,116.1167,76.01,79,98,4.83
217,Beaverlodge,CA,2022-04-26 19:38:12,55.2166,-119.4361,45.75,48,100,4.63
218,Kichera,RU,2022-04-26 19:35:37,55.9375,110.0997,22.8,90,98,0.58
219,Wodonga,AU,2022-04-26 19:38:13,-36.1167,146.8833,59.11,100,100,1.14
220,Airai,TL,2022-04-26 19:38:13,-8.9266,125.4092,58.5,89,100,0.36
221,Clyde River,CA,2022-04-26 19:38:13,70.4692,-68.5914,17.83,93,100,31.07
222,Burns Lake,CA,2022-04-26 19:38:14,54.2331,-125.7533,44.02,34,13,6.02
223,Chara,RU,2022-04-26 19:38:14,56.9064,118.2631,19.94,65,95,2.98
224,Bago,MM,2022-04-26 19:33:49,17.3367,96.4797,82.18,74,11,4.41
225,Medicine Hat,CA,2022-04-26 19:35:15,50.0501,-110.6683,69.73,22,100,14.97
226,Egvekinot,RU,2022-04-26 19:38:15,66.3167,-179.1667,22.71,82,100,3.56
227,Taltal,CL,2022-04-26 19:38:15,-25.4,-70.4833,65.07,75,100,4.83
228,Harriston,CA,2022-04-26 19:38:15,43.9001,-80.883,42.66,81,100,8.05
229,Tupik,RU,2022-04-26 19:38:16,54.4253,119.9327,21.72,87,58,3.49
230,Olafsvik,IS,2022-04-26 19:38:16,64.8945,-23.7142,42.93,76,100,5.19
231,Nyurba,RU,2022-04-26 19:38:16,63.2842,118.3319,11.12,98,70,2.51
232,Andenes,NO,2022-04-26 19:38:17,69.3143,16.1194,26.58,80,40,16.11
233,Stourbridge,GB,2022-04-26 19:38:17,52.4561,-2.1432,52.36,66,98,8.57
234,Narsaq,GL,2022-04-26 19:39:18,60.9167,-46.05,43.02,74,99,0.85
235,Taoudenni,ML,2022-04-26 19:39:18,22.6783,-3.9836,82.69,19,0,10.6
236,Poya,NC,2022-04-26 19:39:18,-21.35,165.15,69.75,76,99,5.44
237,Puerto Del Rosario,ES,2022-04-26 19:39:19,28.5004,-13.8627,67.75,77,75,16.11
238,Vicuna,CL,2022-04-26 19:39:19,-30.0319,-70.7081,68.77,56,29,7.65
239,Cabo San Lucas,MX,2022-04-26 19:39:19,22.8909,-109.9124,88.61,30,0,11.5
240,Fairbanks,US,2022-04-26 19:35:27,64.8378,-147.7164,44.94,61,20,8.05
241,Vuktyl,RU,2022-04-26 19:39:20,63.8567,57.3094,38.48,98,100,10.45
242,Beloha,MG,2022-04-26 19:39:20,-25.1667,45.05,71.94,84,100,11.32
243,Lamas,PE,2022-04-26 19:39:21,-6.4167,-76.5333,84.67,48,66,3.36
244,Abu Kamal,SY,2022-04-26 19:39:21,34.4506,40.9171,74.79,46,0,13.8
245,Souillac,MU,2022-04-26 19:39:21,-20.5167,57.5167,75.58,88,75,10.36
246,Amapa,BR,2022-04-26 19:39:22,1.0,-52.0,78.06,97,100,3.65
247,Kahului,US,2022-04-26 19:38:39,20.8947,-156.47,78.82,69,40,14.97
248,Tezu,IN,2022-04-26 19:39:22,27.9167,96.1667,68.76,63,80,5.32
249,Iquitos,PE,2022-04-26 19:35:03,-3.7481,-73.2472,87.84,66,75,4.61
250,Marquette,US,2022-04-26 19:39:23,46.5333,-87.6335,26.78,86,100,13.02
251,Gogrial,SS,2022-04-26 19:39:23,8.5332,28.1004,90.03,26,16,3.49
252,West Springfield,US,2022-04-26 19:39:23,42.107,-72.6204,55.96,92,100,3.44
253,Chamba,IN,2022-04-26 19:39:24,32.5667,76.1333,68.77,35,0,9.66
254,Bimbo,CF,2022-04-26 19:39:24,4.2567,18.4158,77.72,72,70,6.55
255,Rosario,AR,2022-04-26 19:35:14,-32.9468,-60.6393,80.51,78,75,12.66
256,San Juan,AR,2022-04-26 19:35:51,-31.5375,-68.5364,87.78,6,0,40.04
257,Makakilo City,US,2022-04-26 19:39:25,21.3469,-158.0858,77.32,68,100,13.8
258,Bilibino,RU,2022-04-26 19:39:25,68.0546,166.4372,23.59,82,100,4.9
259,Palmer,US,2022-04-26 19:34:28,42.1584,-72.3287,53.85,85,100,0.0
260,Sibolga,ID,2022-04-26 19:39:26,1.7427,98.7792,77.85,82,100,3.51
261,Port Macquarie,AU,2022-04-26 19:39:26,-31.4333,152.9167,60.89,88,100,2.82
262,Muromtsevo,RU,2022-04-26 19:39:26,56.3724,75.2418,45.55,74,100,3.49
263,Sakakah,SA,2022-04-26 19:39:27,29.9697,40.2064,78.37,27,36,7.34
264,Mount Gambier,AU,2022-04-26 19:39:27,-37.8333,140.7667,58.91,82,100,10.36
265,Ponnampet,IN,2022-04-26 19:39:27,12.15,75.9333,70.59,96,24,1.21
266,San Policarpo,PH,2022-04-26 19:39:28,12.1791,125.5072,81.16,86,100,12.46
267,Les Cayes,HT,2022-04-26 19:39:28,18.2,-73.75,80.46,71,57,6.73
268,Xichang,CN,2022-04-26 19:39:28,27.8964,102.2634,59.83,82,3,1.99
269,Sorland,NO,2022-04-26 19:39:29,67.667,12.6934,32.22,53,100,16.98
270,Katsuura,JP,2022-04-26 19:37:53,35.1333,140.3,69.82,91,100,31.47
271,Vao,NC,2022-04-26 19:39:29,-22.6667,167.4833,74.25,58,100,17.47
272,Te Anau,NZ,2022-04-26 19:39:30,-45.4167,167.7167,44.71,90,42,0.43
273,Rio Grande,BR,2022-04-26 19:39:30,-32.035,-52.0986,77.11,84,32,14.36
274,Matay,EG,2022-04-26 19:39:30,28.419,30.7792,79.75,23,0,21.27
275,Angoram,PG,2022-04-26 19:39:31,-4.0625,144.0661,72.73,97,64,1.25
276,Snasa,NO,2022-04-26 19:39:31,64.2457,12.3778,31.41,91,99,3.91
277,Druzhba,UA,2022-04-26 19:39:31,52.0428,33.9453,51.55,93,98,6.13
278,Tura,IN,2022-04-26 19:39:32,25.5198,90.2201,73.63,82,0,5.19
279,Yangjiang,CN,2022-04-26 19:39:32,21.85,111.9667,75.99,96,4,4.54
280,Gat,IL,2022-04-26 19:40:32,31.61,34.7642,78.4,58,85,5.73
281,Pevek,RU,2022-04-26 19:39:29,69.7008,170.3133,25.59,71,100,8.7
282,Seoul,KR,2022-04-26 19:39:50,37.5683,126.9778,58.39,28,0,9.22
283,Ulan-Ude,RU,2022-04-26 19:40:33,51.8261,107.6098,19.29,79,26,2.24
284,Gomel,BY,2022-04-26 19:40:33,52.4345,30.9754,51.82,100,100,8.95
285,Kulhudhuffushi,MV,2022-04-26 19:40:34,6.6221,73.07,84.58,71,100,0.36
286,Havre-Saint-Pierre,CA,2022-04-26 19:40:34,50.2334,-63.5986,39.56,93,100,4.61
287,Murree,PK,2022-04-26 19:40:34,33.9073,73.393,61.25,39,0,8.32
288,Male,MV,2022-04-26 19:39:17,4.1748,73.5089,84.47,70,78,3.38
289,Tres Arroyos,AR,2022-04-26 19:40:35,-38.3739,-60.2798,67.55,83,89,12.08
290,Salalah,OM,2022-04-26 19:40:35,17.0151,54.0924,84.29,70,20,4.61
291,Nara,JP,2022-04-26 19:40:36,34.6851,135.8049,68.92,97,100,5.77
292,Bahia De Caraquez,EC,2022-04-26 19:40:36,-0.6,-80.4167,84.38,80,97,10.56
293,Zapolyarnyy,RU,2022-04-26 19:40:36,69.4154,30.8136,16.88,69,95,23.33
294,San Patricio,US,2022-04-26 19:40:37,28.017,-97.5169,76.06,59,100,10.4
295,Saskylakh,RU,2022-04-26 19:40:37,71.9167,114.0833,-2.56,98,99,3.67
296,Paracuru,BR,2022-04-26 19:40:37,-3.41,-39.0306,82.11,87,50,9.66
297,Naze,JP,2022-04-26 19:40:38,28.3667,129.4833,72.52,85,100,15.05
298,Bodden Town,KY,2022-04-26 19:40:38,19.2833,-81.25,82.99,75,40,10.36
299,Port Lincoln,AU,2022-04-26 19:36:27,-34.7333,135.8667,61.18,88,26,4.32
300,Sainte-Maxime,FR,2022-04-26 19:39:30,43.3,6.6333,62.62,85,11,4.79
301,San Cristobal,VE,2022-04-26 19:40:39,7.7669,-72.225,80.78,71,96,2.46
302,Ostrovnoy,RU,2022-04-26 19:40:39,68.0531,39.5131,16.68,75,3,18.12
303,Sri Aman,MY,2022-04-26 19:40:39,1.2376,111.4621,77.09,94,98,0.0
304,Kanigoro,ID,2022-04-26 19:40:40,-8.13,112.219,73.45,94,100,1.81
305,Coolum Beach,AU,2022-04-26 19:40:40,-26.5333,153.1,68.07,90,100,7.54
306,Maceio,BR,2022-04-26 19:40:40,-9.6658,-35.7353,78.24,78,75,18.41
307,Moindou,NC,2022-04-26 19:40:41,-21.6924,165.677,70.38,68,98,5.19
308,Maragogi,BR,2022-04-26 19:40:41,-9.0122,-35.2225,78.55,75,6,10.16
309,Saldanha,ZA,2022-04-26 19:40:41,-33.0117,17.9442,57.25,81,0,16.31
310,Perth,AU,2022-04-26 19:38:57,-31.9333,115.8333,59.18,93,75,8.05
311,Bangui,CF,2022-04-26 19:40:42,4.3612,18.555,77.36,74,66,6.76
312,Sao Filipe,CV,2022-04-26 19:40:42,14.8961,-24.4956,75.83,67,13,13.27
313,Bereznik,RU,2022-04-26 19:40:42,62.8551,42.7072,37.02,98,100,5.3
314,Yurla,RU,2022-04-26 19:40:43,59.3259,54.3223,49.23,97,100,5.64
315,Harper,LR,2022-04-26 19:40:43,4.375,-7.7169,79.88,85,100,7.23
316,Svetlogorsk,BY,2022-04-26 19:40:43,52.6333,29.7333,47.57,81,100,5.99
317,Hobyo,SO,2022-04-26 19:40:44,5.3505,48.5268,84.15,64,45,10.2
318,Taperoa,BR,2022-04-26 19:40:44,-7.2075,-36.8267,80.89,50,17,14.61
319,Jinchang,CN,2022-04-26 19:40:44,38.4953,102.1739,50.11,15,100,5.44
320,Kalianget,ID,2022-04-26 19:40:45,-7.05,113.9333,81.48,75,100,3.6
321,Tigil,RU,2022-04-26 19:40:45,57.8,158.6667,28.0,96,99,6.6
322,Klaksvik,FO,2022-04-26 19:40:43,62.2266,-6.589,41.92,67,99,6.2
323,Kafr Sawm,JO,2022-04-26 19:40:46,32.6833,35.8,66.11,44,0,1.34
324,Madanapalle,IN,2022-04-26 19:40:46,13.55,78.5,76.71,60,0,4.74
325,Neiafu,TO,2022-04-26 19:40:46,-18.65,-173.9833,72.28,94,75,0.0
326,Barrow,US,2022-04-26 19:38:02,71.2906,-156.7887,8.62,78,100,14.97
327,Green Valley,US,2022-04-26 19:40:47,31.8543,-110.9937,94.68,10,77,1.99
328,Russell,US,2022-04-26 19:41:47,32.3502,-85.1999,79.88,61,40,10.36
329,Siteki,SZ,2022-04-26 19:41:48,-26.45,31.95,55.24,83,25,3.85
330,Tortoli,IT,2022-04-26 19:41:48,39.9256,9.6572,57.02,94,0,12.66
331,Nantucket,US,2022-04-26 19:40:51,41.2835,-70.0995,53.71,81,100,10.36
332,Malangali,TZ,2022-04-26 19:41:48,-8.5667,34.85,63.79,89,100,11.18
333,Ilulissat,GL,2022-04-26 19:41:49,69.2167,-51.1,35.62,80,100,6.91
334,Nuevo Imperial,PE,2022-04-26 19:41:49,-13.0754,-76.3172,75.52,67,65,7.45
335,Pangody,RU,2022-04-26 19:41:50,65.85,74.4859,24.57,90,100,16.42
336,Kasempa,ZM,2022-04-26 19:41:50,-13.4584,25.8338,66.15,68,76,4.27
337,Muros,ES,2022-04-26 19:41:50,42.7762,-9.0603,58.84,85,87,6.82
338,Osakarovka,KZ,2022-04-26 19:41:51,50.565,72.5692,48.02,43,59,4.54
339,Roebourne,AU,2022-04-26 19:41:51,-20.7833,117.1333,79.54,57,100,11.32
340,Fernley,US,2022-04-26 19:41:51,39.608,-119.2518,70.03,14,77,7.0
341,Thinadhoo,MV,2022-04-26 19:41:52,0.5333,72.9333,84.47,73,50,7.4
342,Nadym,RU,2022-04-26 19:41:53,65.5333,72.5167,29.5,88,100,21.79
343,Minsk,BY,2022-04-26 19:41:53,53.9,27.5667,46.15,77,42,7.31
344,Buta,CD,2022-04-26 19:41:53,2.7858,24.73,71.82,85,99,3.44
345,Zheleznogorsk,RU,2022-04-26 19:41:54,52.331,35.3711,50.14,92,49,6.02
346,Sarangani,PH,2022-04-26 19:41:54,5.4033,125.4636,81.34,78,100,11.54
347,Agirish,RU,2022-04-26 19:41:54,61.9247,63.0231,45.64,98,100,8.12
348,Camaguey,CU,2022-04-26 19:41:55,21.3808,-77.9169,86.34,51,40,17.27
349,Bambous Virieux,MU,2022-04-26 19:41:55,-20.3428,57.7575,76.21,88,75,10.36
350,Petropavlovsk-Kamchatskiy,RU,2022-04-26 19:41:55,53.0452,158.6483,33.78,64,0,2.24
351,Tuensang,IN,2022-04-26 19:41:56,26.2833,94.8333,64.65,75,9,3.13
352,Anadyr,RU,2022-04-26 19:41:56,64.75,177.4833,30.7,92,75,29.08
353,Yantai,CN,2022-04-26 19:41:56,37.5333,121.4,51.26,58,0,10.67
354,Shanghai,CN,2022-04-26 19:39:27,31.2222,121.4581,62.92,75,75,4.47
355,Pangai,TO,2022-04-26 19:41:57,-19.8,-174.35,73.51,83,75,2.3
356,La Primavera,CO,2022-04-26 19:41:57,5.4906,-70.4092,85.96,61,100,6.96
357,Valparaiso,CL,2022-04-26 19:41:57,-33.0393,-71.6273,59.47,95,100,24.16
358,Morondava,MG,2022-04-26 19:41:58,-20.2833,44.2833,78.42,77,99,3.09
359,Burnie,AU,2022-04-26 19:41:58,-41.0667,145.9167,56.59,83,100,11.16
360,Yalova,TR,2022-04-26 19:41:59,40.655,29.2769,63.54,74,100,4.72
361,Puerto Colombia,CO,2022-04-26 19:41:59,10.9878,-74.9547,86.09,76,100,19.33
362,Alamosa,US,2022-04-26 19:41:59,37.4695,-105.87,60.78,23,0,21.85
363,Comendador,DO,2022-04-26 19:42:00,18.8775,-71.7028,85.96,35,20,5.26
364,Chimbote,PE,2022-04-26 19:42:00,-9.0853,-78.5783,71.42,77,21,10.78
365,Guerrero Negro,MX,2022-04-26 19:42:00,27.9769,-114.0611,76.84,36,7,14.56
366,Byron Bay,AU,2022-04-26 19:42:01,-28.65,153.6167,62.49,84,100,4.61
367,Krasnoselkup,RU,2022-04-26 19:42:01,65.7,82.4667,13.71,91,55,8.88
368,Serdobsk,RU,2022-04-26 19:42:01,52.4586,44.2169,58.86,77,53,8.16
369,Bintulu,MY,2022-04-26 19:42:02,3.1667,113.0333,77.41,94,20,5.01
370,Maraba,BR,2022-04-26 19:42:02,-5.3686,-49.1178,93.38,52,75,4.61
371,Magistralnyy,RU,2022-04-26 19:42:03,56.1725,107.4458,29.98,87,100,7.65
372,Wichita Falls,US,2022-04-26 19:41:03,33.9137,-98.4934,73.26,25,0,11.5
373,Pinjaur,IN,2022-04-26 19:42:03,30.7972,76.9172,78.48,17,0,7.52
374,Estacion Coahuila,MX,2022-04-26 19:42:03,32.1939,-115.0017,93.54,4,100,12.01
375,Isangel,VU,2022-04-26 19:43:04,-19.55,169.2667,76.37,56,100,14.23
376,Port-Gentil,GA,2022-04-26 19:43:04,-0.7193,8.7815,82.36,89,40,8.05
377,Wentzville,US,2022-04-26 19:43:05,38.8114,-90.8529,60.94,38,0,5.99
378,Vegueta,PE,2022-04-26 19:43:05,-11.0231,-77.6431,71.37,77,30,11.3
379,Heyang,CN,2022-04-26 19:43:05,26.1011,107.473,64.15,96,1,3.09
380,Araguacu,BR,2022-04-26 19:43:06,-12.9306,-49.8264,84.69,59,1,3.89
381,Senneterre,CA,2022-04-26 19:43:06,48.3835,-77.2328,36.64,74,100,7.63
382,Ciudad Real,ES,2022-04-26 19:43:06,39.0,-4.0,62.11,70,100,1.99
383,Campechuela,CU,2022-04-26 19:43:07,20.2342,-77.2789,87.62,47,18,11.48
384,Oneonta,US,2022-04-26 19:43:07,42.4529,-75.0638,57.29,96,100,3.2
385,Heidelberg,ZA,2022-04-26 19:43:07,-26.5048,28.3592,55.72,34,0,2.8
386,Akyab,MM,2022-04-26 19:43:08,20.15,92.9,81.09,84,6,6.44
387,Kelheim,DE,2022-04-26 19:43:08,48.9167,11.8667,47.39,90,79,2.8
388,Mezen,RU,2022-04-26 19:43:08,65.8522,44.24,25.0,93,100,15.01
389,Talnakh,RU,2022-04-26 19:43:09,69.4865,88.3972,11.21,94,89,7.52
390,Taybad,IR,2022-04-26 19:43:09,34.74,60.7756,75.88,26,99,18.97
391,Tyazhinskiy,RU,2022-04-26 19:43:10,56.116,88.524,35.64,80,23,6.4
392,Lompoc,US,2022-04-26 19:43:10,34.6391,-120.4579,77.68,64,0,25.99
393,Vestmannaeyjar,IS,2022-04-26 19:43:10,63.4427,-20.2734,47.39,81,75,4.61
394,Nouadhibou,MR,2022-04-26 19:39:27,20.931,-17.0347,67.98,77,0,19.57
395,Okha,RU,2022-04-26 19:43:11,53.5739,142.9478,28.04,96,100,17.31
396,Naryan-Mar,RU,2022-04-26 19:43:11,67.6713,53.087,32.23,99,100,7.49
397,Umm Kaddadah,SD,2022-04-26 19:43:11,13.6017,26.6876,87.01,20,100,9.19
398,Qiryat Shemona,IL,2022-04-26 19:43:12,33.2073,35.5721,69.15,43,0,3.33
399,Ust-Maya,RU,2022-04-26 19:43:12,60.4167,134.5333,18.27,94,61,3.31
400,Satrikh,IN,2022-04-26 19:43:13,26.8667,81.2,80.67,12,0,3.49
401,Phalombe,MW,2022-04-26 19:43:13,-15.8064,35.6507,65.95,94,100,4.99
402,Shahrud,IR,2022-04-26 19:43:13,36.4182,54.9763,61.56,64,100,4.34
403,Sorong,ID,2022-04-26 19:43:14,-0.8833,131.25,78.37,86,100,4.41
404,Vanavara,RU,2022-04-26 19:43:14,60.34,102.2797,25.45,98,84,4.52
405,Jacareacanga,BR,2022-04-26 19:43:15,-6.2222,-57.7528,89.98,50,99,4.21
406,Pangkalanbuun,ID,2022-04-26 19:43:15,-2.6833,111.6167,75.42,97,100,0.96
407,Siaya,KE,2022-04-26 19:43:15,0.0612,34.2882,65.55,93,100,2.44
408,Elmira,US,2022-04-26 19:40:46,42.0898,-76.8077,58.51,80,100,8.05
409,Nhulunbuy,AU,2022-04-26 19:43:16,-12.2333,136.7667,75.81,94,92,0.0
410,Kuldur,RU,2022-04-26 19:43:16,49.2167,131.6333,29.25,95,96,8.57
411,Dingle,PH,2022-04-26 19:43:17,10.9995,122.6711,77.41,89,100,7.27
412,Asau,RO,2022-04-26 19:43:17,46.4333,26.4,51.28,90,35,1.66
413,Hami,CN,2022-04-26 19:43:17,42.8,93.45,56.21,51,100,6.67
414,Dawei,MM,2022-04-26 19:43:18,14.0833,98.2,78.6,88,34,0.65
415,Hot Springs,US,2022-04-26 19:43:18,34.5037,-93.0552,69.93,35,0,8.05
416,Bahir Dar,ET,2022-04-26 19:43:19,11.5936,37.3908,71.85,54,72,4.43
417,Ambulu,ID,2022-04-26 19:41:15,-8.345,113.6058,75.13,90,100,2.42
418,Mar Del Plata,AR,2022-04-26 19:42:25,-38.0023,-57.5575,71.62,91,75,16.11
419,Menongue,AO,2022-04-26 19:43:20,-14.6585,17.691,64.24,60,66,2.8
420,Cairns,AU,2022-04-26 19:43:20,-16.9167,145.7667,76.06,93,100,6.91
421,Point Pedro,LK,2022-04-26 19:43:20,9.8167,80.2333,82.27,79,80,9.33
422,Bani Walid,LY,2022-04-26 19:44:21,31.7566,13.9942,65.41,55,91,11.34
423,Strezhevoy,RU,2022-04-26 19:44:21,60.7333,77.5889,32.85,99,100,3.2
424,Kangundo,KE,2022-04-26 19:44:22,-1.2979,37.3471,68.34,93,100,3.31
425,Lata,PT,2022-04-26 19:44:22,40.1629,-8.3327,59.81,94,2,1.28
426,Turtas,RU,2022-04-26 19:44:22,58.9417,69.1325,41.83,88,93,8.08
427,Safford,US,2022-04-26 19:40:44,32.834,-109.7076,83.12,22,0,17.27
428,Robertsport,LR,2022-04-26 19:44:23,6.7533,-11.3686,81.68,84,95,11.54
429,Komsomolskiy,UZ,2022-04-26 19:44:23,40.4272,71.7189,68.72,56,75,9.22
430,Smoky Lake,CA,2022-04-26 19:44:23,54.1169,-112.4686,48.36,49,100,10.36
431,Loiza,PR,2022-04-26 19:44:24,18.4313,-65.8802,83.86,73,100,13.11
432,Waingapu,ID,2022-04-26 19:44:24,-9.6567,120.2641,74.95,71,99,4.36
433,Pacific Grove,US,2022-04-26 19:43:16,36.6177,-121.9166,69.55,73,40,14.97
434,Huilong,CN,2022-04-26 19:44:25,31.8111,121.655,60.93,92,100,8.19
435,Vardo,NO,2022-04-26 19:44:25,70.3705,31.1107,17.58,93,100,32.21
436,Mount Isa,AU,2022-04-26 19:40:43,-20.7333,139.5,69.57,94,40,6.91
437,Velizh,RU,2022-04-26 19:44:25,55.6056,31.1967,41.31,74,75,4.47
438,Hambantota,LK,2022-04-26 19:44:26,6.1241,81.1185,81.01,79,82,0.36
439,Divnoye,RU,2022-04-26 19:44:26,45.9089,43.3547,62.46,60,61,9.28
440,La Ronge,CA,2022-04-26 19:44:26,55.1001,-105.2842,43.02,26,0,20.71
441,Chuy,UY,2022-04-26 19:44:27,-33.6971,-53.4616,71.04,82,57,9.64
442,Adeje,ES,2022-04-26 19:44:27,28.1227,-16.726,67.01,60,75,19.57
443,Tamboril,DO,2022-04-26 19:44:27,19.4854,-70.611,86.77,48,20,8.05
444,Labuhan,ID,2022-04-26 19:44:28,-6.8844,112.2051,78.51,87,100,4.43
445,Kumluca,TR,2022-04-26 19:44:28,36.3703,30.2869,66.42,63,100,2.35
446,Tyup,KG,2022-04-26 19:44:28,42.7276,78.3648,47.59,36,67,3.04
447,Tucuman,AR,2022-04-26 19:40:27,-26.8241,-65.2226,84.2,61,0,9.22
448,Kon Tum,VN,2022-04-26 19:44:29,14.35,108.0,69.39,94,100,1.5
449,Puerto Madryn,AR,2022-04-26 19:43:54,-42.7692,-65.0385,64.35,25,100,20.22
450,Gueret,FR,2022-04-26 19:44:29,46.1667,1.8667,46.6,79,15,6.33
451,Caravelas,BR,2022-04-26 19:44:30,-17.7125,-39.2481,78.58,73,0,5.55
452,Westport,US,2022-04-26 19:43:20,41.1415,-73.3579,60.19,94,100,11.5
453,Almaznyy,RU,2022-04-26 19:44:30,48.0448,40.045,61.47,70,22,7.18
454,Ust-Uda,RU,2022-04-26 19:44:31,54.1742,103.0304,31.71,57,100,3.47
455,Jumla,NP,2022-04-26 19:44:31,29.2747,82.1838,46.54,65,0,4.99
456,Livingston,GB,2022-04-26 19:44:31,55.9029,-3.5226,47.84,73,75,9.22
457,Kaliua,TZ,2022-04-26 19:44:32,-5.0606,31.7936,65.68,93,100,2.21
458,Port Hedland,AU,2022-04-26 19:44:32,-20.3167,118.5667,77.05,78,100,8.05
459,Garowe,SO,2022-04-26 19:44:33,8.4054,48.4845,78.85,62,29,14.29
460,Portland,US,2022-04-26 19:44:26,45.5234,-122.6762,55.53,73,75,13.0
461,La Sarre,CA,2022-04-26 19:44:33,48.8002,-79.1996,33.57,57,100,9.8
462,Rafaela,AR,2022-04-26 19:44:33,-31.2503,-61.4867,84.99,57,24,3.0
463,Vilhena,BR,2022-04-26 19:44:34,-12.7406,-60.1458,88.02,51,40,12.66
464,Mahibadhoo,MV,2022-04-26 19:44:34,3.7833,72.9667,84.43,70,64,2.66
465,Tabou,CI,2022-04-26 19:44:34,4.423,-7.3528,81.28,82,100,7.47
466,Kutum,SD,2022-04-26 19:44:35,14.2,24.6667,80.4,20,94,1.54
467,Narragansett,US,2022-04-26 19:43:52,41.4501,-71.4495,53.96,76,100,9.22
468,Yemelyanovo,RU,2022-04-26 19:45:35,56.1681,92.6767,43.61,45,0,11.18
469,Okhotsk,RU,2022-04-26 19:45:36,59.3833,143.3,20.86,82,3,8.9
470,Tarauaca,BR,2022-04-26 19:45:36,-8.1614,-70.7656,82.89,79,100,1.9
471,Amiens,FR,2022-04-26 19:45:36,49.9,2.3,49.19,73,48,9.78
472,Portmore,JM,2022-04-26 19:45:37,17.9702,-76.8672,82.02,94,75,10.36
473,Antalaha,MG,2022-04-26 19:45:37,-14.9003,50.2788,72.57,85,20,5.61
474,Tombouctou,ML,2022-04-26 19:40:38,20.0,-3.0,80.87,19,0,10.74
475,Srednekolymsk,RU,2022-04-26 19:45:37,67.45,153.6833,16.99,95,100,12.64
476,Auki,SB,2022-04-26 19:41:19,-8.7676,160.7034,77.92,86,22,3.62
477,Yulara,AU,2022-04-26 19:45:38,-25.2406,130.9889,57.04,51,98,4.61
478,Grand Baie,MU,2022-04-26 19:42:29,-20.0182,57.5802,76.44,76,9,4.0
479,Todos Santos,MX,2022-04-26 19:45:38,23.45,-110.2167,69.66,83,2,6.44
480,Bulgan,MN,2022-04-26 19:45:39,48.8125,103.5347,31.73,30,100,1.72
481,Igunga,TZ,2022-04-26 19:45:39,-4.2833,33.8833,69.19,81,95,1.43
482,Port Moresby,PG,2022-04-26 19:45:39,-9.4431,147.1797,76.42,94,75,11.5
483,Broome,US,2022-04-26 19:45:40,42.2506,-75.833,56.7,81,100,9.22
484,Hofn,IS,2022-04-26 19:45:40,64.2539,-15.2082,45.97,81,17,11.68
485,Jonesboro,US,2022-04-26 19:45:31,35.8423,-90.7043,63.82,39,0,8.05
486,Saint George,US,2022-04-26 19:45:21,37.1041,-113.5841,84.43,9,0,5.75
487,Vostok,RU,2022-04-26 19:45:40,46.4856,135.8833,35.51,84,100,10.87
488,Norman Wells,CA,2022-04-26 19:41:27,65.282,-126.8329,41.04,56,40,10.36
489,Imperia,IT,2022-04-26 19:45:41,43.9667,7.7833,52.41,94,80,3.71
490,Fort Morgan,US,2022-04-26 19:42:38,40.2503,-103.8,70.45,13,0,10.36
491,Tutoia,BR,2022-04-26 19:45:41,-2.7619,-42.2744,80.78,85,87,8.05
492,Bilma,NE,2022-04-26 19:45:42,18.6853,12.9164,90.25,9,0,2.64
493,Quatre Cocos,MU,2022-04-26 19:45:42,-20.2078,57.7625,76.08,80,35,12.24
494,Virginia Beach,US,2022-04-26 19:45:42,36.8529,-75.978,89.65,43,0,17.27
495,Oistins,BB,2022-04-26 19:45:23,13.0667,-59.5333,80.69,83,75,9.22
496,Merauke,ID,2022-04-26 19:45:43,-8.4667,140.3333,77.61,85,100,3.96
497,Casablanca,MA,2022-04-26 19:45:35,33.5928,-7.6192,62.94,72,75,6.91
498,Santa Isabel Do Rio Negro,BR,2022-04-26 19:45:43,-0.4139,-65.0192,75.96,98,100,1.52
499,Tula,RU,2022-04-26 19:45:44,54.2044,37.6111,48.15,92,43,6.64
500,Moose Factory,CA,2022-04-26 19:45:44,51.2585,-80.6094,21.2,73,100,9.22
501,Buin,CL,2022-04-26 19:45:44,-33.7333,-70.75,66.24,65,100,8.23
502,Pasni,PK,2022-04-26 19:45:45,25.2631,63.471,81.19,84,0,9.1
503,Pontal Do Parana,BR,2022-04-26 19:45:45,-25.6533,-48.5128,73.92,85,100,4.59
504,Cruzeiro Do Sul,BR,2022-04-26 19:45:45,-29.5128,-51.9853,72.52,93,100,3.18
505,Timizart,DZ,2022-04-26 19:45:46,36.8,4.2667,60.85,77,98,7.54
506,Tulucesti,RO,2022-04-26 19:45:46,45.5667,28.0333,63.81,43,100,3.8
507,Turukhansk,RU,2022-04-26 19:45:46,65.8167,87.9833,10.83,95,22,4.07
508,San Andres,CO,2022-04-26 19:45:47,12.5847,-81.7006,86.02,74,40,11.5
509,Capelinha,BR,2022-04-26 19:45:47,-17.6914,-42.5158,71.31,68,5,7.18
510,Agadez,NE,2022-04-26 19:45:47,19.75,10.25,87.37,10,0,14.29
511,Hovd,MN,2022-04-26 19:45:48,48.0056,91.6419,37.63,48,64,2.21
512,Asyut,EG,2022-04-26 19:45:48,27.181,31.1837,87.98,16,4,17.83
513,Aksu,CN,2022-04-26 19:44:32,41.1231,80.2644,62.89,14,70,6.31
514,Anshun,CN,2022-04-26 19:45:49,26.25,105.9333,60.96,92,0,4.97
515,Camacha,PT,2022-04-26 19:45:49,33.0833,-16.3333,62.02,63,40,11.5
516,Nishihara,JP,2022-04-26 19:45:49,26.1842,127.7558,77.05,97,100,16.11
517,Progreso,MX,2022-04-26 19:46:50,21.2833,-89.6667,92.1,65,2,19.42
518,Sarankhola,BD,2022-04-26 19:46:50,22.3082,89.7897,78.93,94,0,6.08
519,Henties Bay,NA,2022-04-26 19:46:50,-22.116,14.2845,63.32,70,1,5.95
520,Aklavik,CA,2022-04-26 19:46:51,68.2191,-135.0107,30.06,94,76,5.61
521,Rovaniemi,FI,2022-04-26 19:46:51,66.5,25.7167,27.81,46,0,9.22
522,Sinegorye,RU,2022-04-26 19:46:51,62.0788,150.477,14.34,94,100,4.68
523,Marsa Matruh,EG,2022-04-26 19:46:52,31.3525,27.2453,64.6,82,0,5.75
524,Vyritsa,RU,2022-04-26 19:46:52,59.4078,30.3481,40.51,80,40,6.85
525,Derzhavinsk,KZ,2022-04-26 19:46:52,51.1,66.3167,53.87,50,8,6.53
526,Wadern,DE,2022-04-26 19:46:53,49.5333,6.8833,47.89,96,34,4.14
527,Staryy Nadym,RU,2022-04-26 19:46:53,65.6118,72.6842,29.16,88,100,21.41
528,Ascension,US,2022-04-26 19:45:50,30.2169,-90.9001,81.09,63,75,8.05
529,Alyangula,AU,2022-04-26 19:46:54,-13.8483,136.4192,75.07,100,45,3.44
530,Channel-Port Aux Basques,CA,2022-04-26 19:46:54,47.5702,-59.1367,41.04,79,100,7.58
531,Guangyuan,CN,2022-04-26 19:46:54,32.442,105.823,66.76,88,100,1.03
532,Aksarka,RU,2022-04-26 19:46:55,66.5606,67.7975,33.78,98,100,18.14
533,Sungai Besar,MY,2022-04-26 19:46:55,3.6746,100.9867,78.91,89,100,6.13
534,Ahipara,NZ,2022-04-26 19:46:55,-35.1667,173.1667,62.53,71,96,6.98
535,Kuryk,KZ,2022-04-26 19:46:56,43.2,51.65,71.6,29,100,18.88
536,Sinnamary,GF,2022-04-26 19:46:56,5.3833,-52.95,81.66,78,100,8.88
537,Fuerte Olimpo,PY,2022-04-26 19:46:56,-21.0415,-57.8738,101.86,24,53,12.06
538,Hassan,IN,2022-04-26 19:46:57,13.0006,76.0994,75.67,74,43,4.94
539,Kanye,BW,2022-04-26 19:46:58,-24.9667,25.3327,56.55,34,0,4.94
540,Roma,US,2022-04-26 19:46:59,43.2128,-75.4557,52.52,74,100,13.0
541,Quepos,CR,2022-04-26 19:44:55,9.4236,-84.1652,82.96,77,84,5.17
542,Smithers,CA,2022-04-26 19:46:59,54.7804,-127.1743,46.72,46,40,9.22
543,Esperance,AU,2022-04-26 19:46:59,-33.8667,121.9,58.84,66,1,6.87
544,New Plymouth,NZ,2022-04-26 19:43:18,-39.0667,174.0833,56.8,81,31,6.8
545,Saint-Pierre,RE,2022-04-26 19:46:13,-21.3393,55.4781,73.29,73,0,6.91
546,Arenillas,ES,2022-04-26 19:47:00,41.3471,-2.8462,52.0,79,100,8.66
547,Tchollire,CM,2022-04-26 19:47:00,8.4022,14.1698,78.73,73,100,7.18
548,Sola,VU,2022-04-26 19:47:01,-13.8833,167.55,81.36,74,98,19.04
549,San Ramon,US,2022-04-26 19:42:06,37.7799,-121.978,71.56,54,0,12.66
550,Half Moon Bay,US,2022-04-26 19:47:01,37.4636,-122.4286,70.54,64,0,28.77
551,Borovskoy,KZ,2022-04-26 19:47:02,53.8,64.15,51.53,67,28,7.52
552,Mineros,BO,2022-04-26 19:47:02,-17.1167,-63.2333,87.03,55,100,8.84
553,Marrakesh,MA,2022-04-26 19:42:03,31.6315,-8.0083,69.87,40,40,14.97
554,Galle,LK,2022-04-26 19:47:03,6.0367,80.217,79.97,83,91,4.38
555,Porbandar,IN,2022-04-26 19:47:03,21.6422,69.6093,81.14,79,0,9.15
556,Reconquista,AR,2022-04-26 19:47:03,-29.15,-59.65,84.51,63,100,11.81
557,Irbil,IQ,2022-04-26 19:47:04,36.1926,44.0106,66.02,82,20,3.44
558,Puerto Escondido,MX,2022-04-26 19:47:04,15.85,-97.0667,87.62,58,19,8.88
559,Qostanay,KZ,2022-04-26 19:47:04,53.1667,63.5833,44.89,70,0,4.47
560,Buraydah,SA,2022-04-26 19:47:05,26.326,43.975,81.05,40,0,17.16
561,Launceston,AU,2022-04-26 19:42:44,-41.45,147.1667,51.44,90,40,8.05
562,Hasaki,JP,2022-04-26 19:47:05,35.7333,140.8333,72.28,87,100,32.84
563,Norden,DE,2022-04-26 19:48:05,53.6,7.2,45.97,74,17,7.16
564,Riyadh,SA,2022-04-26 19:45:57,24.6877,46.7219,75.34,33,60,12.21
565,Leh,IN,2022-04-26 19:48:06,34.1667,77.5833,40.95,50,20,4.45
566,Pudozh,RU,2022-04-26 19:48:06,61.8099,36.5345,33.03,95,100,8.95
567,Belluno,IT,2022-04-26 19:48:07,46.145,12.2214,53.89,93,99,5.99
568,Salinas,US,2022-04-26 19:48:04,36.6777,-121.6555,72.01,62,0,16.11
569,Carahue,CL,2022-04-26 19:48:07,-38.7,-73.1667,50.59,84,22,7.07
570,Hervey Bay,AU,2022-04-26 19:48:08,-25.2986,152.8535,72.54,67,97,14.05
571,Kashi,CN,2022-04-26 19:48:08,39.4547,75.9797,69.01,15,99,6.71
572,Conde,BR,2022-04-26 19:48:09,-7.2597,-34.9075,83.66,70,40,14.97
573,Toora-Khem,RU,2022-04-26 19:48:09,52.4675,96.11,26.89,90,87,0.4
574,Tigbao,PH,2022-04-26 19:48:09,12.5546,123.3389,81.09,85,100,10.96
575,Jvari,GE,2022-04-26 19:48:10,42.7169,42.052,59.5,82,30,4.03
576,Craig,US,2022-04-26 19:48:10,40.5153,-107.5464,64.35,17,0,8.05
577,La Palma,US,2022-04-26 19:48:10,33.8464,-118.0467,87.85,49,75,11.5
578,Tahoua,NE,2022-04-26 19:48:11,14.8888,5.2692,96.78,10,0,6.91
579,Belgrade,RS,2022-04-26 19:45:42,44.804,20.4651,62.26,65,0,4.61
580,Kiunga,PG,2022-04-26 19:48:11,-6.1219,141.2906,72.91,100,99,1.92
581,Koraput,IN,2022-04-26 19:48:11,18.8167,82.7167,78.26,42,27,3.78
582,Ucluelet,CA,2022-04-26 19:48:12,48.9329,-125.5528,46.09,88,97,1.01
583,Mazamari,PE,2022-04-26 19:48:12,-11.3258,-74.5308,88.57,50,100,3.22
584,Iracoubo,GF,2022-04-26 19:48:13,5.4802,-53.2011,81.39,80,100,9.01
585,Baillif,GP,2022-04-26 19:48:13,16.0202,-61.7463,82.63,61,100,4.99
586,Duluth,US,2022-04-26 19:48:13,46.7833,-92.1066,37.08,52,100,13.8
587,Karaton,ID,2022-04-26 19:48:14,-6.3424,106.1045,75.52,92,100,2.01
588,Qasigiannguit,GL,2022-04-26 19:48:14,68.8193,-51.1922,35.85,87,100,12.91
589,Copiapo,CL,2022-04-26 19:43:21,-27.3667,-70.3333,62.29,43,42,6.89
590,Longonjo,AO,2022-04-26 19:48:14,-12.9067,15.2533,66.72,67,89,3.56
591,Sao Jose Da Coroa Grande,BR,2022-04-26 19:48:15,-8.8978,-35.1478,79.12,73,10,10.27
592,Hvolsvollur,IS,2022-04-26 19:48:15,63.7533,-20.2243,47.07,73,100,5.01
